{
    "restaurants":[
  {
    "id": 1,
    "restaurentName": "Celka",
    "longitude": 19.2813,
    "latitude": 73.0483
  },
  {
    "id": 2,
    "restaurentName": "Elga",
    "longitude": -8.581189,
    "latitude": 40.6300635
  },
  {
    "id": 3,
    "restaurentName": "Skell",
    "longitude": 37.9980367,
    "latitude": 48.5986674
  },
  {
    "id": 4,
    "restaurentName": "Rozamond",
    "longitude": 105.606648,
    "latitude": 33.195993
  },
  {
    "id": 5,
    "restaurentName": "Joy",
    "longitude": 101.841707,
    "latitude": 26.695419
  },
  {
    "id": 6,
    "restaurentName": "Sanford",
    "longitude": 11.09386,
    "latitude": 36.84757
  },
  {
    "id": 7,
    "restaurentName": "Ravi",
    "longitude": 119.015255,
    "latitude": 25.431829
  },
  {
    "id": 8,
    "restaurentName": "Vivianna",
    "longitude": 108.291137,
    "latitude": -7.7955645
  },
  {
    "id": 9,
    "restaurentName": "Royall",
    "longitude": 119.007777,
    "latitude": 25.454084
  },
  {
    "id": 10,
    "restaurentName": "Stanwood",
    "longitude": 117.1770394,
    "latitude": 39.0924952
  },
  {
    "id": 11,
    "restaurentName": "Scottie",
    "longitude": 17.4530287,
    "latitude": 59.186002
  },
  {
    "id": 12,
    "restaurentName": "Flory",
    "longitude": 21.8957589,
    "latitude": 43.3209022
  },
  {
    "id": 13,
    "restaurentName": "Dalila",
    "longitude": 139.1346049,
    "latitude": 37.6623635
  },
  {
    "id": 14,
    "restaurentName": "Kamila",
    "longitude": 31.719254,
    "latitude": 48.9172739
  },
  {
    "id": 15,
    "restaurentName": "Hersh",
    "longitude": -35.6860723,
    "latitude": -6.7378881
  },
  {
    "id": 16,
    "restaurentName": "Bendite",
    "longitude": 120.980736,
    "latitude": 31.385597
  },
  {
    "id": 17,
    "restaurentName": "Sibella",
    "longitude": 115.5631,
    "latitude": -8.2464
  },
  {
    "id": 18,
    "restaurentName": "Clevey",
    "longitude": 12.4867883,
    "latitude": 43.9704382
  },
  {
    "id": 19,
    "restaurentName": "Lonee",
    "longitude": -92.0269227,
    "latitude": 14.7536759
  },
  {
    "id": 20,
    "restaurentName": "Lora",
    "longitude": 17.4884299,
    "latitude": 52.99166
  },
  {
    "id": 21,
    "restaurentName": "Noelyn",
    "longitude": 120.4493879,
    "latitude": 41.57365
  },
  {
    "id": 22,
    "restaurentName": "Gerrard",
    "longitude": -96.7300158,
    "latitude": 17.0635121
  },
  {
    "id": 23,
    "restaurentName": "Bryce",
    "longitude": 119.1736353,
    "latitude": -9.4852898
  },
  {
    "id": 24,
    "restaurentName": "Florance",
    "longitude": -5.664252,
    "latitude": 43.5162166
  },
  {
    "id": 25,
    "restaurentName": "Bliss",
    "longitude": 36.5321926,
    "latitude": 55.6691322
  },
  {
    "id": 26,
    "restaurentName": "Marlene",
    "longitude": 100.5201019,
    "latitude": 13.70832
  },
  {
    "id": 27,
    "restaurentName": "Edna",
    "longitude": 120.9891643,
    "latitude": 13.7832268
  },
  {
    "id": 28,
    "restaurentName": "Gerda",
    "longitude": -76.6613239,
    "latitude": -9.771006
  },
  {
    "id": 29,
    "restaurentName": "Iorgo",
    "longitude": 120.9675108,
    "latitude": 14.6633828
  },
  {
    "id": 30,
    "restaurentName": "Derry",
    "longitude": 19.6440066,
    "latitude": 40.590023
  },
  {
    "id": 31,
    "restaurentName": "Brendin",
    "longitude": 121.0143507,
    "latitude": 14.6141298
  },
  {
    "id": 32,
    "restaurentName": "Cristobal",
    "longitude": 33.5728027,
    "latitude": -0.2182982
  },
  {
    "id": 33,
    "restaurentName": "Faythe",
    "longitude": -4.2429565,
    "latitude": 36.757714
  },
  {
    "id": 34,
    "restaurentName": "Halley",
    "longitude": -82.5131717,
    "latitude": 22.795672
  },
  {
    "id": 35,
    "restaurentName": "Tanitansy",
    "longitude": -102.0946818,
    "latitude": 32.0688848
  },
  {
    "id": 36,
    "restaurentName": "Aland",
    "longitude": 124.2869167,
    "latitude": 40.02575
  },
  {
    "id": 37,
    "restaurentName": "Boris",
    "longitude": -100.2268529,
    "latitude": 25.8025129
  },
  {
    "id": 38,
    "restaurentName": "Arman",
    "longitude": 123.957208,
    "latitude": 41.880872
  },
  {
    "id": 39,
    "restaurentName": "Carlye",
    "longitude": -5.295876,
    "latitude": 34.4729886
  },
  {
    "id": 40,
    "restaurentName": "Alleyn",
    "longitude": -86.9949372,
    "latitude": 13.1191133
  },
  {
    "id": 41,
    "restaurentName": "Jen",
    "longitude": 31.5370003,
    "latitude": -2.164898
  },
  {
    "id": 42,
    "restaurentName": "Sheila",
    "longitude": 126.4878731,
    "latitude": 37.7467263
  },
  {
    "id": 43,
    "restaurentName": "Emylee",
    "longitude": -99.1732936,
    "latitude": 19.602311
  },
  {
    "id": 44,
    "restaurentName": "Galven",
    "longitude": 41.4475479,
    "latitude": 52.6545685
  },
  {
    "id": 45,
    "restaurentName": "Brigitta",
    "longitude": 102.639837,
    "latitude": 28.445007
  },
  {
    "id": 46,
    "restaurentName": "Randie",
    "longitude": 113.0852,
    "latitude": -6.8903
  },
  {
    "id": 47,
    "restaurentName": "Dean",
    "longitude": 35.9396453,
    "latitude": 32.6434902
  },
  {
    "id": 48,
    "restaurentName": "Derry",
    "longitude": 113.6770012,
    "latitude": -8.1611036
  },
  {
    "id": 49,
    "restaurentName": "Tessie",
    "longitude": 119.161748,
    "latitude": 36.706962
  },
  {
    "id": 50,
    "restaurentName": "Cyndy",
    "longitude": 122.6579982,
    "latitude": 11.0126649
  },
  {
    "id": 51,
    "restaurentName": "Merrie",
    "longitude": 113.916509,
    "latitude": 22.483182
  },
  {
    "id": 52,
    "restaurentName": "Farleigh",
    "longitude": 35.717481,
    "latitude": -7.2376196
  },
  {
    "id": 53,
    "restaurentName": "Elinor",
    "longitude": 111.7227409,
    "latitude": 29.0300404
  },
  {
    "id": 54,
    "restaurentName": "Rainer",
    "longitude": 18.6959162,
    "latitude": 45.4146244
  },
  {
    "id": 55,
    "restaurentName": "Adelina",
    "longitude": 18.9770856,
    "latitude": 49.858677
  },
  {
    "id": 56,
    "restaurentName": "Valaree",
    "longitude": 106.3581527,
    "latitude": 20.2993311
  },
  {
    "id": 57,
    "restaurentName": "Wat",
    "longitude": 114.2212174,
    "latitude": 4.5831986
  },
  {
    "id": 58,
    "restaurentName": "Josie",
    "longitude": 120.3608455,
    "latitude": -3.3939043
  },
  {
    "id": 59,
    "restaurentName": "Cullan",
    "longitude": 102.664376,
    "latitude": 25.038296
  },
  {
    "id": 60,
    "restaurentName": "Judie",
    "longitude": -9.193864,
    "latitude": 39.0427929
  },
  {
    "id": 61,
    "restaurentName": "Goldarina",
    "longitude": 121.439288,
    "latitude": 31.135176
  },
  {
    "id": 62,
    "restaurentName": "Doti",
    "longitude": 111.885002,
    "latitude": -6.898384
  },
  {
    "id": 63,
    "restaurentName": "Maisey",
    "longitude": 104.100502,
    "latitude": -1.259553
  },
  {
    "id": 64,
    "restaurentName": "Alick",
    "longitude": 121.261886,
    "latitude": 28.650072
  },
  {
    "id": 65,
    "restaurentName": "Tonya",
    "longitude": 115.5917918,
    "latitude": -2.2728607
  },
  {
    "id": 66,
    "restaurentName": "Emmalynne",
    "longitude": -87.6953979,
    "latitude": 13.7178702
  },
  {
    "id": 67,
    "restaurentName": "Corey",
    "longitude": -40.4976324,
    "latitude": -7.57656
  },
  {
    "id": 68,
    "restaurentName": "Mandel",
    "longitude": 90.5247893,
    "latitude": 22.8275824
  },
  {
    "id": 69,
    "restaurentName": "Donnie",
    "longitude": 113.3823545,
    "latitude": 34.2904302
  },
  {
    "id": 70,
    "restaurentName": "James",
    "longitude": 114.8315052,
    "latitude": 60.722442
  },
  {
    "id": 71,
    "restaurentName": "Ralina",
    "longitude": 20.9948039,
    "latitude": 50.404585
  },
  {
    "id": 72,
    "restaurentName": "Melita",
    "longitude": 108.2659999,
    "latitude": -7.360381
  },
  {
    "id": 73,
    "restaurentName": "Eddy",
    "longitude": 42.8253662,
    "latitude": 33.6435199
  },
  {
    "id": 74,
    "restaurentName": "Alfredo",
    "longitude": 7.1736304,
    "latitude": 51.256002
  },
  {
    "id": 75,
    "restaurentName": "Tine",
    "longitude": 23.9253941,
    "latitude": -26.7162431
  },
  {
    "id": 76,
    "restaurentName": "Cecilla",
    "longitude": 117.251586,
    "latitude": 39.128291
  },
  {
    "id": 77,
    "restaurentName": "Dinny",
    "longitude": 41.1911122,
    "latitude": 43.9531098
  },
  {
    "id": 78,
    "restaurentName": "Harbert",
    "longitude": -72.9489509,
    "latitude": 5.95661
  },
  {
    "id": 79,
    "restaurentName": "Fremont",
    "longitude": 136.9664664,
    "latitude": 36.661223
  },
  {
    "id": 80,
    "restaurentName": "Donnie",
    "longitude": 4.7872834,
    "latitude": 7.945451
  },
  {
    "id": 81,
    "restaurentName": "Una",
    "longitude": 89.5403279,
    "latitude": 22.845641
  },
  {
    "id": 82,
    "restaurentName": "Irwinn",
    "longitude": -75.2153857,
    "latitude": 10.1386495
  },
  {
    "id": 83,
    "restaurentName": "Catlee",
    "longitude": 110.897275,
    "latitude": 27.58237
  },
  {
    "id": 84,
    "restaurentName": "Alister",
    "longitude": 30.0025887,
    "latitude": 54.4626821
  },
  {
    "id": 85,
    "restaurentName": "Duke",
    "longitude": 122.5747412,
    "latitude": 10.6989729
  },
  {
    "id": 86,
    "restaurentName": "Doroteya",
    "longitude": 109.207335,
    "latitude": 21.660935
  },
  {
    "id": 87,
    "restaurentName": "Roley",
    "longitude": 119.7889248,
    "latitude": 29.1416432
  },
  {
    "id": 88,
    "restaurentName": "Morten",
    "longitude": 115.49047,
    "latitude": 23.614734
  },
  {
    "id": 89,
    "restaurentName": "Cathryn",
    "longitude": 114.532957,
    "latitude": 28.955847
  },
  {
    "id": 90,
    "restaurentName": "Kevan",
    "longitude": 120.0531443,
    "latitude": 28.9141178
  },
  {
    "id": 91,
    "restaurentName": "Rora",
    "longitude": -2.933333,
    "latitude": 35.133333
  },
  {
    "id": 92,
    "restaurentName": "Royce",
    "longitude": 111.207,
    "latitude": -7.9531596
  },
  {
    "id": 93,
    "restaurentName": "Tully",
    "longitude": -7.2396659,
    "latitude": 31.2888328
  },
  {
    "id": 94,
    "restaurentName": "Shannon",
    "longitude": -8.5304169,
    "latitude": 41.9502131
  },
  {
    "id": 95,
    "restaurentName": "Rodolphe",
    "longitude": 101.4095405,
    "latitude": 0.4994734
  },
  {
    "id": 96,
    "restaurentName": "Heddie",
    "longitude": 103.671179,
    "latitude": 1.5179989
  },
  {
    "id": 97,
    "restaurentName": "Reinold",
    "longitude": 4.596042,
    "latitude": 44.819386
  },
  {
    "id": 98,
    "restaurentName": "Rollin",
    "longitude": 117.419998,
    "latitude": 25.290184
  },
  {
    "id": 99,
    "restaurentName": "Didi",
    "longitude": -54.198107,
    "latitude": -27.284815
  },
  {
    "id": 100,
    "restaurentName": "Ichabod",
    "longitude": 110.67167,
    "latitude": 25.611704
  },
  {
    "id": 101,
    "restaurentName": "Collette",
    "longitude": 122.899983,
    "latitude": 14.18364
  },
  {
    "id": 102,
    "restaurentName": "Cassey",
    "longitude": -79.7231612,
    "latitude": 22.0983236
  },
  {
    "id": 103,
    "restaurentName": "Hattie",
    "longitude": -40.1526661,
    "latitude": -4.3253636
  },
  {
    "id": 104,
    "restaurentName": "Dar",
    "longitude": 23.7725723,
    "latitude": 38.0120968
  },
  {
    "id": 105,
    "restaurentName": "Mikel",
    "longitude": 112.299103,
    "latitude": 23.791187
  },
  {
    "id": 106,
    "restaurentName": "Sansone",
    "longitude": 19.7556505,
    "latitude": 45.3125176
  },
  {
    "id": 107,
    "restaurentName": "Gloriane",
    "longitude": 109.3781809,
    "latitude": 34.0506434
  },
  {
    "id": 108,
    "restaurentName": "Hadley",
    "longitude": 107.6422488,
    "latitude": -6.8780895
  },
  {
    "id": 109,
    "restaurentName": "Kellby",
    "longitude": 2.430785,
    "latitude": 48.6047256
  },
  {
    "id": 110,
    "restaurentName": "Pauly",
    "longitude": 115.989656,
    "latitude": 36.8539304
  },
  {
    "id": 111,
    "restaurentName": "Sunny",
    "longitude": 139.8857687,
    "latitude": 37.6579018
  },
  {
    "id": 112,
    "restaurentName": "Rowland",
    "longitude": -71.7325021,
    "latitude": -35.5930962
  },
  {
    "id": 113,
    "restaurentName": "Aldridge",
    "longitude": 18.6122466,
    "latitude": 52.6884746
  },
  {
    "id": 114,
    "restaurentName": "Christoforo",
    "longitude": 18.0585213,
    "latitude": 59.341383
  },
  {
    "id": 115,
    "restaurentName": "Foster",
    "longitude": 109.0007407,
    "latitude": -7.7194317
  },
  {
    "id": 116,
    "restaurentName": "Enrichetta",
    "longitude": 113.645873,
    "latitude": 33.631238
  },
  {
    "id": 117,
    "restaurentName": "Geno",
    "longitude": 119.7889248,
    "latitude": 29.1416432
  },
  {
    "id": 118,
    "restaurentName": "Lyon",
    "longitude": 109.152893,
    "latitude": 33.423357
  },
  {
    "id": 119,
    "restaurentName": "Bancroft",
    "longitude": 49.710366,
    "latitude": 40.5323093
  },
  {
    "id": 120,
    "restaurentName": "Laurice",
    "longitude": 14.5640162,
    "latitude": 50.0901553
  },
  {
    "id": 121,
    "restaurentName": "Codie",
    "longitude": 31.751934,
    "latitude": -28.959987
  },
  {
    "id": 122,
    "restaurentName": "Tyrone",
    "longitude": 37.6911,
    "latitude": 55.7646
  },
  {
    "id": 123,
    "restaurentName": "Torrence",
    "longitude": -58.6055652,
    "latitude": -34.7264519
  },
  {
    "id": 124,
    "restaurentName": "Boycey",
    "longitude": 123.5098357,
    "latitude": 13.657259
  },
  {
    "id": 125,
    "restaurentName": "Robinson",
    "longitude": 45.5278152,
    "latitude": 43.4009223
  },
  {
    "id": 126,
    "restaurentName": "Minna",
    "longitude": -79.6080967,
    "latitude": -6.2746751
  },
  {
    "id": 127,
    "restaurentName": "Brennen",
    "longitude": 111.528999,
    "latitude": 1.411517
  },
  {
    "id": 128,
    "restaurentName": "Kipp",
    "longitude": 108.2257659,
    "latitude": -7.003771
  },
  {
    "id": 129,
    "restaurentName": "Novelia",
    "longitude": -51.7316065,
    "latitude": 64.1754054
  },
  {
    "id": 130,
    "restaurentName": "Babs",
    "longitude": 117.135488,
    "latitude": 39.224791
  },
  {
    "id": 131,
    "restaurentName": "Tara",
    "longitude": 101.564635,
    "latitude": 21.459233
  },
  {
    "id": 132,
    "restaurentName": "Phyllys",
    "longitude": 112.6285385,
    "latitude": -8.0604636
  },
  {
    "id": 133,
    "restaurentName": "Shea",
    "longitude": 79.8908308,
    "latitude": 6.9280156
  },
  {
    "id": 134,
    "restaurentName": "Jamie",
    "longitude": 119.188203,
    "latitude": 31.805855
  },
  {
    "id": 135,
    "restaurentName": "Brooke",
    "longitude": 18.3083298,
    "latitude": 50.9831778
  },
  {
    "id": 136,
    "restaurentName": "Howard",
    "longitude": 111.977943,
    "latitude": 43.653169
  },
  {
    "id": 137,
    "restaurentName": "Nicolea",
    "longitude": 50.0918078,
    "latitude": 40.3802589
  },
  {
    "id": 138,
    "restaurentName": "Nickolai",
    "longitude": 112.573483,
    "latitude": 30.692993
  },
  {
    "id": 139,
    "restaurentName": "Gaby",
    "longitude": -116.9030256,
    "latitude": 32.5468611
  },
  {
    "id": 140,
    "restaurentName": "Gian",
    "longitude": 119.839212,
    "latitude": 34.007974
  },
  {
    "id": 141,
    "restaurentName": "Carolin",
    "longitude": 149.3023702,
    "latitude": 6.6885285
  },
  {
    "id": 142,
    "restaurentName": "Geraldine",
    "longitude": 5.8978018,
    "latitude": 43.4945737
  },
  {
    "id": 143,
    "restaurentName": "Klemens",
    "longitude": -4.7497457,
    "latitude": 41.6465777
  },
  {
    "id": 144,
    "restaurentName": "Scotty",
    "longitude": 27.3331357,
    "latitude": 56.5099223
  },
  {
    "id": 145,
    "restaurentName": "Mylo",
    "longitude": 141.3941151,
    "latitude": 41.0938736
  },
  {
    "id": 146,
    "restaurentName": "Jess",
    "longitude": 23.2170296,
    "latitude": 50.4145342
  },
  {
    "id": 147,
    "restaurentName": "Graeme",
    "longitude": 30.2166519,
    "latitude": 13.1782149
  },
  {
    "id": 148,
    "restaurentName": "Reuben",
    "longitude": 111.2994071,
    "latitude": -7.8533911
  },
  {
    "id": 149,
    "restaurentName": "Dinny",
    "longitude": 14.8829285,
    "latitude": 44.7984547
  },
  {
    "id": 150,
    "restaurentName": "Vivienne",
    "longitude": 100.5071143,
    "latitude": 14.0790588
  },
  {
    "id": 151,
    "restaurentName": "Alastair",
    "longitude": -58.6671801,
    "latitude": -34.5055818
  },
  {
    "id": 152,
    "restaurentName": "Dianna",
    "longitude": 116.12895,
    "latitude": 40.23921
  },
  {
    "id": 153,
    "restaurentName": "Annetta",
    "longitude": 18.0975334,
    "latitude": 59.3473789
  },
  {
    "id": 154,
    "restaurentName": "Karrie",
    "longitude": -48.3242858,
    "latitude": -10.249091
  },
  {
    "id": 155,
    "restaurentName": "Laney",
    "longitude": 18.0158192,
    "latitude": 49.7563861
  },
  {
    "id": 156,
    "restaurentName": "Oliy",
    "longitude": 102.2400127,
    "latitude": 6.12151
  },
  {
    "id": 157,
    "restaurentName": "Paloma",
    "longitude": 66.1742259,
    "latitude": 57.670116
  },
  {
    "id": 158,
    "restaurentName": "Lanny",
    "longitude": 16.6287495,
    "latitude": 46.3903028
  },
  {
    "id": 159,
    "restaurentName": "Jodie",
    "longitude": 111.592073,
    "latitude": 30.521605
  },
  {
    "id": 160,
    "restaurentName": "Anstice",
    "longitude": 120.758543,
    "latitude": 30.753924
  },
  {
    "id": 161,
    "restaurentName": "Godwin",
    "longitude": 30.6044813,
    "latitude": 59.8037463
  },
  {
    "id": 162,
    "restaurentName": "Hadlee",
    "longitude": 19.8960968,
    "latitude": 42.0469772
  },
  {
    "id": 163,
    "restaurentName": "Brittany",
    "longitude": 119.389592,
    "latitude": 32.504051
  },
  {
    "id": 164,
    "restaurentName": "Edyth",
    "longitude": 117.4703209,
    "latitude": -8.4880061
  },
  {
    "id": 165,
    "restaurentName": "Guido",
    "longitude": 118.190467,
    "latitude": 26.170171
  },
  {
    "id": 166,
    "restaurentName": "Raoul",
    "longitude": 121.1956,
    "latitude": -8.8449
  },
  {
    "id": 167,
    "restaurentName": "Rik",
    "longitude": 30.2154406,
    "latitude": 48.7699292
  },
  {
    "id": 168,
    "restaurentName": "Parrnell",
    "longitude": -75.6274679,
    "latitude": 2.195403
  },
  {
    "id": 169,
    "restaurentName": "Harald",
    "longitude": -117.5950841,
    "latitude": 33.6419542
  },
  {
    "id": 170,
    "restaurentName": "Persis",
    "longitude": 133.9246009,
    "latitude": -0.970213
  },
  {
    "id": 171,
    "restaurentName": "Heinrik",
    "longitude": 7.3507066,
    "latitude": 47.7489727
  },
  {
    "id": 172,
    "restaurentName": "Devlin",
    "longitude": -6.2340942,
    "latitude": 53.2993199
  },
  {
    "id": 173,
    "restaurentName": "Hamish",
    "longitude": 5.3707209,
    "latitude": 43.4914335
  },
  {
    "id": 174,
    "restaurentName": "Rhodia",
    "longitude": 99.222336,
    "latitude": 25.905283
  },
  {
    "id": 175,
    "restaurentName": "Briggs",
    "longitude": -85.2294397,
    "latitude": 10.0307694
  },
  {
    "id": 176,
    "restaurentName": "Carmencita",
    "longitude": 15.1668326,
    "latitude": -4.5887697
  },
  {
    "id": 177,
    "restaurentName": "Ebenezer",
    "longitude": 108.158909,
    "latitude": 34.074131
  },
  {
    "id": 178,
    "restaurentName": "Jonie",
    "longitude": -71.4013635,
    "latitude": 41.8265437
  },
  {
    "id": 179,
    "restaurentName": "Bendix",
    "longitude": 22.118526,
    "latitude": 65.5966234
  },
  {
    "id": 180,
    "restaurentName": "Rodrique",
    "longitude": 107.08093,
    "latitude": -7.02476
  },
  {
    "id": 181,
    "restaurentName": "Darb",
    "longitude": 122.0680526,
    "latitude": 13.8645517
  },
  {
    "id": 182,
    "restaurentName": "Christopher",
    "longitude": 125.323544,
    "latitude": 43.817071
  },
  {
    "id": 183,
    "restaurentName": "Tomi",
    "longitude": 115.4841713,
    "latitude": 38.8665109
  },
  {
    "id": 184,
    "restaurentName": "Gordy",
    "longitude": 108.5908437,
    "latitude": -6.9078493
  },
  {
    "id": 185,
    "restaurentName": "Isabeau",
    "longitude": 11.6761027,
    "latitude": 58.4592933
  },
  {
    "id": 186,
    "restaurentName": "Lenard",
    "longitude": -76.67749,
    "latitude": 7.665099
  },
  {
    "id": 187,
    "restaurentName": "Pooh",
    "longitude": -75.6499025,
    "latitude": 4.8271607
  },
  {
    "id": 188,
    "restaurentName": "Kylie",
    "longitude": 137.4284822,
    "latitude": 36.8603732
  },
  {
    "id": 189,
    "restaurentName": "Stavro",
    "longitude": 114.644894,
    "latitude": 38.263746
  },
  {
    "id": 190,
    "restaurentName": "Eric",
    "longitude": 120.477813,
    "latitude": 37.646108
  },
  {
    "id": 191,
    "restaurentName": "Annelise",
    "longitude": 8.7591311,
    "latitude": -0.7351026
  },
  {
    "id": 192,
    "restaurentName": "Kiley",
    "longitude": 111.945844,
    "latitude": 25.570888
  },
  {
    "id": 193,
    "restaurentName": "Gavan",
    "longitude": 112.2264794,
    "latitude": -6.9010133
  },
  {
    "id": 194,
    "restaurentName": "Analise",
    "longitude": 102.9715346,
    "latitude": 17.1390992
  },
  {
    "id": 195,
    "restaurentName": "Tammara",
    "longitude": -8.2776432,
    "latitude": 41.4821084
  },
  {
    "id": 196,
    "restaurentName": "Janaye",
    "longitude": 24.7558475,
    "latitude": 42.1450502
  },
  {
    "id": 197,
    "restaurentName": "Iseabal",
    "longitude": 121.8505679,
    "latitude": -8.7458539
  },
  {
    "id": 198,
    "restaurentName": "Filberte",
    "longitude": 81.836206,
    "latitude": 43.217183
  },
  {
    "id": 199,
    "restaurentName": "May",
    "longitude": 91.5039207,
    "latitude": 26.8035682
  },
  {
    "id": 200,
    "restaurentName": "Gayel",
    "longitude": 117.218044,
    "latitude": 39.19537
  },
  {
    "id": 201,
    "restaurentName": "Alis",
    "longitude": 121.5101004,
    "latitude": 28.5009486
  },
  {
    "id": 202,
    "restaurentName": "Tessy",
    "longitude": 39.7451425,
    "latitude": 43.5648626
  },
  {
    "id": 203,
    "restaurentName": "Lindsay",
    "longitude": 113.83639,
    "latitude": 42.2375
  },
  {
    "id": 204,
    "restaurentName": "Boycey",
    "longitude": 18.7293002,
    "latitude": 50.969668
  },
  {
    "id": 205,
    "restaurentName": "Leda",
    "longitude": -64.1305924,
    "latitude": -31.4325479
  },
  {
    "id": 206,
    "restaurentName": "Jerrine",
    "longitude": 38.1392419,
    "latitude": 56.1060907
  },
  {
    "id": 207,
    "restaurentName": "Halley",
    "longitude": -58.5074331,
    "latitude": -34.5332237
  },
  {
    "id": 208,
    "restaurentName": "Vince",
    "longitude": 46.9368047,
    "latitude": 34.7955755
  },
  {
    "id": 209,
    "restaurentName": "Carla",
    "longitude": -100.2596935,
    "latitude": 25.6775595
  },
  {
    "id": 210,
    "restaurentName": "Cassey",
    "longitude": 120.4786045,
    "latitude": 14.641705
  },
  {
    "id": 211,
    "restaurentName": "Ingrim",
    "longitude": 83.4937253,
    "latitude": 54.4413911
  },
  {
    "id": 212,
    "restaurentName": "Curry",
    "longitude": 44.2810588,
    "latitude": 32.7104016
  },
  {
    "id": 213,
    "restaurentName": "Donaugh",
    "longitude": 2.238154,
    "latitude": 48.8952384
  },
  {
    "id": 214,
    "restaurentName": "Andrew",
    "longitude": 69.28677,
    "latitude": 39.41691
  },
  {
    "id": 215,
    "restaurentName": "Heall",
    "longitude": 114.922922,
    "latitude": 25.386379
  },
  {
    "id": 216,
    "restaurentName": "Spike",
    "longitude": 20.0509216,
    "latitude": -33.8298782
  },
  {
    "id": 217,
    "restaurentName": "Dayle",
    "longitude": 106.3786028,
    "latitude": -6.5619262
  },
  {
    "id": 218,
    "restaurentName": "Teddy",
    "longitude": -80.5855038,
    "latitude": 22.9856091
  },
  {
    "id": 219,
    "restaurentName": "Rosella",
    "longitude": -149.6045718,
    "latitude": -17.623
  },
  {
    "id": 220,
    "restaurentName": "Jerrome",
    "longitude": -70.3494605,
    "latitude": -15.6412156
  },
  {
    "id": 221,
    "restaurentName": "Ole",
    "longitude": 113.5371368,
    "latitude": -8.3654775
  },
  {
    "id": 222,
    "restaurentName": "Austin",
    "longitude": 11.2580472,
    "latitude": 6.7205676
  },
  {
    "id": 223,
    "restaurentName": "Beckie",
    "longitude": 69.2877535,
    "latitude": 35.8042947
  },
  {
    "id": 224,
    "restaurentName": "Dene",
    "longitude": -79.0517936,
    "latitude": -8.1448805
  },
  {
    "id": 225,
    "restaurentName": "Worthington",
    "longitude": 45.0606557,
    "latitude": -25.1694494
  },
  {
    "id": 226,
    "restaurentName": "Dorothy",
    "longitude": 2.7912279,
    "latitude": 48.6366985
  },
  {
    "id": 227,
    "restaurentName": "Kenn",
    "longitude": 106.8783167,
    "latitude": -6.2960156
  },
  {
    "id": 228,
    "restaurentName": "Hart",
    "longitude": 120.224318,
    "latitude": 14.8823312
  },
  {
    "id": 229,
    "restaurentName": "Ambrosi",
    "longitude": 104.8265942,
    "latitude": 26.600973
  },
  {
    "id": 230,
    "restaurentName": "Bernie",
    "longitude": 18.78031,
    "latitude": 52.671181
  },
  {
    "id": 231,
    "restaurentName": "Adiana",
    "longitude": 109.44096,
    "latitude": 34.540852
  },
  {
    "id": 232,
    "restaurentName": "Hewett",
    "longitude": -77.4569804,
    "latitude": -8.8228089
  },
  {
    "id": 233,
    "restaurentName": "Rafael",
    "longitude": 121.692832,
    "latitude": 17.659685
  },
  {
    "id": 234,
    "restaurentName": "Anny",
    "longitude": 80.250811,
    "latitude": 50.4233463
  },
  {
    "id": 235,
    "restaurentName": "Caryn",
    "longitude": 123.237,
    "latitude": -8.3052
  },
  {
    "id": 236,
    "restaurentName": "Brion",
    "longitude": 124.9871635,
    "latitude": 10.8825337
  },
  {
    "id": 237,
    "restaurentName": "Henryetta",
    "longitude": 113.0030017,
    "latitude": 23.2462521
  },
  {
    "id": 238,
    "restaurentName": "Ginger",
    "longitude": 43.59647,
    "latitude": 16.01787
  },
  {
    "id": 239,
    "restaurentName": "Danice",
    "longitude": 10.0852568,
    "latitude": 53.607925
  },
  {
    "id": 240,
    "restaurentName": "Reta",
    "longitude": 45.4592782,
    "latitude": 39.6941363
  },
  {
    "id": 241,
    "restaurentName": "Alanson",
    "longitude": -27.306593,
    "latitude": 38.7917289
  },
  {
    "id": 242,
    "restaurentName": "Kristoforo",
    "longitude": 16.8367681,
    "latitude": 49.0535092
  },
  {
    "id": 243,
    "restaurentName": "Estele",
    "longitude": 15.6962323,
    "latitude": 45.3250638
  },
  {
    "id": 244,
    "restaurentName": "Baird",
    "longitude": 6.1519039,
    "latitude": 48.6853182
  },
  {
    "id": 245,
    "restaurentName": "Massimo",
    "longitude": 122.509131,
    "latitude": 40.644621
  },
  {
    "id": 246,
    "restaurentName": "Fairleigh",
    "longitude": -60.6743215,
    "latitude": -32.947692
  },
  {
    "id": 247,
    "restaurentName": "Adolphe",
    "longitude": 123.1476046,
    "latitude": 11.4693878
  },
  {
    "id": 248,
    "restaurentName": "Nichol",
    "longitude": 103.262152,
    "latitude": 36.733165
  },
  {
    "id": 249,
    "restaurentName": "Brandy",
    "longitude": -13.8694543,
    "latitude": 13.3304675
  },
  {
    "id": 250,
    "restaurentName": "Ernesto",
    "longitude": 38.2516419,
    "latitude": 54.8095591
  },
  {
    "id": 251,
    "restaurentName": "Julio",
    "longitude": -9.351354,
    "latitude": 29.9338311
  },
  {
    "id": 252,
    "restaurentName": "Dorthea",
    "longitude": -64.2708937,
    "latitude": -27.7310843
  },
  {
    "id": 253,
    "restaurentName": "Everett",
    "longitude": -7.6302454,
    "latitude": 40.7003439
  },
  {
    "id": 254,
    "restaurentName": "Julio",
    "longitude": 37.8060214,
    "latitude": 55.6411722
  },
  {
    "id": 255,
    "restaurentName": "Jan",
    "longitude": -73.860733,
    "latitude": 40.72997
  },
  {
    "id": 256,
    "restaurentName": "Eadith",
    "longitude": -8.555621,
    "latitude": 39.5068579
  },
  {
    "id": 257,
    "restaurentName": "Ebba",
    "longitude": 108.1665855,
    "latitude": 15.6848385
  },
  {
    "id": 258,
    "restaurentName": "Valeda",
    "longitude": 117.002933,
    "latitude": 35.302488
  },
  {
    "id": 259,
    "restaurentName": "Erv",
    "longitude": 115.3459831,
    "latitude": -8.4164207
  },
  {
    "id": 260,
    "restaurentName": "Dexter",
    "longitude": -48.7218983,
    "latitude": -23.3866812
  },
  {
    "id": 261,
    "restaurentName": "Hermie",
    "longitude": 124.720371,
    "latitude": -8.221841
  },
  {
    "id": 262,
    "restaurentName": "Alaster",
    "longitude": 111.1384418,
    "latitude": -6.7836529
  },
  {
    "id": 263,
    "restaurentName": "Mirilla",
    "longitude": -72.0616304,
    "latitude": 8.017253
  },
  {
    "id": 264,
    "restaurentName": "Dilly",
    "longitude": 116.336069,
    "latitude": 27.522069
  },
  {
    "id": 265,
    "restaurentName": "Esdras",
    "longitude": 38.4290322,
    "latitude": 52.6630895
  },
  {
    "id": 266,
    "restaurentName": "Isador",
    "longitude": 101.803717,
    "latitude": 36.599744
  },
  {
    "id": 267,
    "restaurentName": "Claus",
    "longitude": -88.2892972,
    "latitude": 15.2678504
  },
  {
    "id": 268,
    "restaurentName": "Tiffanie",
    "longitude": -9.123079,
    "latitude": 38.6273566
  },
  {
    "id": 269,
    "restaurentName": "Bevan",
    "longitude": 21.2277415,
    "latitude": 41.0417485
  },
  {
    "id": 270,
    "restaurentName": "Joell",
    "longitude": 72.7617572,
    "latitude": 42.9438711
  },
  {
    "id": 271,
    "restaurentName": "Teresita",
    "longitude": 19.3702897,
    "latitude": 43.6188697
  },
  {
    "id": 272,
    "restaurentName": "Debby",
    "longitude": 121.0670507,
    "latitude": 14.5968528
  },
  {
    "id": 273,
    "restaurentName": "Carmela",
    "longitude": 76.1899661,
    "latitude": 42.4624691
  },
  {
    "id": 274,
    "restaurentName": "Marguerite",
    "longitude": 109.599191,
    "latitude": 27.948308
  },
  {
    "id": 275,
    "restaurentName": "Lavina",
    "longitude": 158.16109,
    "latitude": 6.92477
  },
  {
    "id": 276,
    "restaurentName": "Carlo",
    "longitude": -40.3322956,
    "latitude": -17.8546259
  },
  {
    "id": 277,
    "restaurentName": "Devlin",
    "longitude": 21.4872815,
    "latitude": 51.8925608
  },
  {
    "id": 278,
    "restaurentName": "Jacquetta",
    "longitude": 116.754472,
    "latitude": 25.710538
  },
  {
    "id": 279,
    "restaurentName": "Floris",
    "longitude": -73.079328,
    "latitude": -40.2952749
  },
  {
    "id": 280,
    "restaurentName": "Blakeley",
    "longitude": 115.805297,
    "latitude": 32.92312
  },
  {
    "id": 281,
    "restaurentName": "Eyde",
    "longitude": 120.5648017,
    "latitude": 15.8352583
  },
  {
    "id": 282,
    "restaurentName": "Kai",
    "longitude": 119.460526,
    "latitude": 29.208918
  },
  {
    "id": 283,
    "restaurentName": "Graeme",
    "longitude": 15.1782064,
    "latitude": 50.1267742
  },
  {
    "id": 284,
    "restaurentName": "Katharina",
    "longitude": 118.9353968,
    "latitude": 29.5530941
  },
  {
    "id": 285,
    "restaurentName": "Xenos",
    "longitude": -50.2199938,
    "latitude": -22.787936
  },
  {
    "id": 286,
    "restaurentName": "Emalee",
    "longitude": 121.626963,
    "latitude": 29.042269
  },
  {
    "id": 287,
    "restaurentName": "Quinn",
    "longitude": -42.9426188,
    "latitude": -21.120123
  },
  {
    "id": 288,
    "restaurentName": "Amitie",
    "longitude": 113.058484,
    "latitude": 22.299866
  },
  {
    "id": 289,
    "restaurentName": "Margi",
    "longitude": 122.469352,
    "latitude": 13.513211
  },
  {
    "id": 290,
    "restaurentName": "Flynn",
    "longitude": 25.4633333,
    "latitude": 36.3688889
  },
  {
    "id": 291,
    "restaurentName": "Nicolina",
    "longitude": -55.9525652,
    "latitude": -34.2965929
  },
  {
    "id": 292,
    "restaurentName": "Arnuad",
    "longitude": 13.1015839,
    "latitude": 57.7298725
  },
  {
    "id": 293,
    "restaurentName": "Randee",
    "longitude": 106.9093,
    "latitude": -6.334631
  },
  {
    "id": 294,
    "restaurentName": "Charmian",
    "longitude": 13.8033551,
    "latitude": 50.3539812
  },
  {
    "id": 295,
    "restaurentName": "Cyndie",
    "longitude": 23.586422,
    "latitude": 52.7456843
  },
  {
    "id": 296,
    "restaurentName": "Alma",
    "longitude": 124.06889,
    "latitude": 6.72556
  },
  {
    "id": 297,
    "restaurentName": "Francine",
    "longitude": 10.3680364,
    "latitude": 11.4493585
  },
  {
    "id": 298,
    "restaurentName": "Wilow",
    "longitude": -119.8185447,
    "latitude": 39.5251914
  },
  {
    "id": 299,
    "restaurentName": "Maridel",
    "longitude": 90.1194227,
    "latitude": 23.6150659
  },
  {
    "id": 300,
    "restaurentName": "Charmaine",
    "longitude": -8.943639,
    "latitude": 39.6883157
  },
  {
    "id": 301,
    "restaurentName": "Lena",
    "longitude": -113.5832367,
    "latitude": 52.675914
  },
  {
    "id": 302,
    "restaurentName": "Callie",
    "longitude": -118.3403506,
    "latitude": 34.1615135
  },
  {
    "id": 303,
    "restaurentName": "Krissy",
    "longitude": -7.9808794,
    "latitude": 39.7213971
  },
  {
    "id": 304,
    "restaurentName": "Marena",
    "longitude": 112.1579249,
    "latitude": -7.7766561
  },
  {
    "id": 305,
    "restaurentName": "Allianora",
    "longitude": 45.9920397,
    "latitude": 43.3211671
  },
  {
    "id": 306,
    "restaurentName": "Anita",
    "longitude": 121.261886,
    "latitude": 28.650072
  },
  {
    "id": 307,
    "restaurentName": "Theressa",
    "longitude": 33.8815261,
    "latitude": 50.8305647
  },
  {
    "id": 308,
    "restaurentName": "Joan",
    "longitude": 116.420331,
    "latitude": 39.761892
  },
  {
    "id": 309,
    "restaurentName": "Kalindi",
    "longitude": 16.5231662,
    "latitude": 52.8517028
  },
  {
    "id": 310,
    "restaurentName": "Dennie",
    "longitude": 114.987561,
    "latitude": 56.339549
  },
  {
    "id": 311,
    "restaurentName": "Kelci",
    "longitude": -117.8194197,
    "latitude": 34.5925622
  },
  {
    "id": 312,
    "restaurentName": "Doloritas",
    "longitude": 63.672798,
    "latitude": 56.0895859
  },
  {
    "id": 313,
    "restaurentName": "Karlotte",
    "longitude": 10.767309,
    "latitude": 59.9026039
  },
  {
    "id": 314,
    "restaurentName": "Silvanus",
    "longitude": 36.84085,
    "latitude": 53.43852
  },
  {
    "id": 315,
    "restaurentName": "Sydel",
    "longitude": 112.7420274,
    "latitude": -8.1512742
  },
  {
    "id": 316,
    "restaurentName": "Quinlan",
    "longitude": 1.7811783,
    "latitude": 43.974344
  },
  {
    "id": 317,
    "restaurentName": "Bobbette",
    "longitude": 118.8322,
    "latitude": 31.264895
  },
  {
    "id": 318,
    "restaurentName": "Marybelle",
    "longitude": 116.350531,
    "latitude": 27.398759
  },
  {
    "id": 319,
    "restaurentName": "Jacquette",
    "longitude": 18.2789033,
    "latitude": 49.5438285
  },
  {
    "id": 320,
    "restaurentName": "Shauna",
    "longitude": 123.957208,
    "latitude": 41.880872
  },
  {
    "id": 321,
    "restaurentName": "Amabelle",
    "longitude": -4.419495,
    "latitude": 36.7203407
  },
  {
    "id": 322,
    "restaurentName": "Robinetta",
    "longitude": -73.8654295,
    "latitude": -12.7389848
  },
  {
    "id": 323,
    "restaurentName": "Danell",
    "longitude": -87.2593454,
    "latitude": 13.8093174
  },
  {
    "id": 324,
    "restaurentName": "Jaquenette",
    "longitude": 85.232941,
    "latitude": 29.328818
  },
  {
    "id": 325,
    "restaurentName": "Randolph",
    "longitude": 124.345531,
    "latitude": 41.834144
  },
  {
    "id": 326,
    "restaurentName": "Dredi",
    "longitude": 26.8321332,
    "latitude": -23.107801
  },
  {
    "id": 327,
    "restaurentName": "Lefty",
    "longitude": 28.6709271,
    "latitude": 52.8996249
  },
  {
    "id": 328,
    "restaurentName": "Darill",
    "longitude": 75.854942,
    "latitude": 30.912962
  },
  {
    "id": 329,
    "restaurentName": "Carrol",
    "longitude": 22.5089067,
    "latitude": 48.5412136
  },
  {
    "id": 330,
    "restaurentName": "Kikelia",
    "longitude": -6.1942058,
    "latitude": 53.3604483
  },
  {
    "id": 331,
    "restaurentName": "Dahlia",
    "longitude": -74.283333,
    "latitude": -5.266667
  },
  {
    "id": 332,
    "restaurentName": "Cesare",
    "longitude": -73.3767641,
    "latitude": -13.6616515
  },
  {
    "id": 333,
    "restaurentName": "Rourke",
    "longitude": 139.9228567,
    "latitude": 38.9951183
  },
  {
    "id": 334,
    "restaurentName": "Conney",
    "longitude": 47.4245319,
    "latitude": 32.9886195
  },
  {
    "id": 335,
    "restaurentName": "Tirrell",
    "longitude": 10.81017,
    "latitude": 4.392584
  },
  {
    "id": 336,
    "restaurentName": "Rich",
    "longitude": 105.993491,
    "latitude": 9.9789961
  },
  {
    "id": 337,
    "restaurentName": "Murvyn",
    "longitude": 13.9368114,
    "latitude": 56.8134441
  },
  {
    "id": 338,
    "restaurentName": "Asia",
    "longitude": 88.520031,
    "latitude": 28.274601
  },
  {
    "id": 339,
    "restaurentName": "Donny",
    "longitude": 22.9444191,
    "latitude": 40.6400629
  },
  {
    "id": 340,
    "restaurentName": "Pascal",
    "longitude": -95.244405,
    "latitude": 16.3047672
  },
  {
    "id": 341,
    "restaurentName": "Oona",
    "longitude": 18.2730402,
    "latitude": 59.324761
  },
  {
    "id": 342,
    "restaurentName": "Genna",
    "longitude": 44.8327881,
    "latitude": 61.1012691
  },
  {
    "id": 343,
    "restaurentName": "Joshia",
    "longitude": 3.5567339,
    "latitude": 50.5474037
  },
  {
    "id": 344,
    "restaurentName": "Stephani",
    "longitude": -105.547392,
    "latitude": 36.438167
  },
  {
    "id": 345,
    "restaurentName": "Luise",
    "longitude": -7.9325424,
    "latitude": 38.5703228
  },
  {
    "id": 346,
    "restaurentName": "Marius",
    "longitude": 104.655337,
    "latitude": 34.995728
  },
  {
    "id": 347,
    "restaurentName": "Madelin",
    "longitude": 120.51769,
    "latitude": 36.889084
  },
  {
    "id": 348,
    "restaurentName": "Theobald",
    "longitude": -13.3876116,
    "latitude": 9.7086357
  },
  {
    "id": 349,
    "restaurentName": "Odelinda",
    "longitude": -67.9195741,
    "latitude": 10.0850213
  },
  {
    "id": 350,
    "restaurentName": "Minna",
    "longitude": 34.703101,
    "latitude": 31.783056
  },
  {
    "id": 351,
    "restaurentName": "Laurena",
    "longitude": 28.4034797,
    "latitude": 48.3940341
  },
  {
    "id": 352,
    "restaurentName": "Carlee",
    "longitude": 2.0763253,
    "latitude": 42.2470995
  },
  {
    "id": 353,
    "restaurentName": "Auria",
    "longitude": 1.2073261,
    "latitude": 6.4329457
  },
  {
    "id": 354,
    "restaurentName": "Cynthia",
    "longitude": -38.7110678,
    "latitude": -12.5465375
  },
  {
    "id": 355,
    "restaurentName": "Yulma",
    "longitude": 108.4454089,
    "latitude": -7.3742259
  },
  {
    "id": 356,
    "restaurentName": "Henryetta",
    "longitude": 111.6630914,
    "latitude": -7.0921189
  },
  {
    "id": 357,
    "restaurentName": "Alma",
    "longitude": 124.8405081,
    "latitude": 1.3229337
  },
  {
    "id": 358,
    "restaurentName": "Sayre",
    "longitude": -75.761865,
    "latitude": 4.625907
  },
  {
    "id": 359,
    "restaurentName": "Fawnia",
    "longitude": 106.6717451,
    "latitude": -6.2736138
  },
  {
    "id": 360,
    "restaurentName": "Borg",
    "longitude": 14.7099785,
    "latitude": 50.7140155
  },
  {
    "id": 361,
    "restaurentName": "Timmy",
    "longitude": 57.3241614,
    "latitude": 51.5258667
  },
  {
    "id": 362,
    "restaurentName": "Hallsy",
    "longitude": 126.2947741,
    "latitude": 41.378328
  },
  {
    "id": 363,
    "restaurentName": "Gaby",
    "longitude": 111.5140386,
    "latitude": -6.791629
  },
  {
    "id": 364,
    "restaurentName": "Brinna",
    "longitude": 113.213468,
    "latitude": 33.971743
  },
  {
    "id": 365,
    "restaurentName": "Lorianna",
    "longitude": -7.9642047,
    "latitude": 41.1060534
  },
  {
    "id": 366,
    "restaurentName": "Tabby",
    "longitude": 105.6326457,
    "latitude": 10.1164943
  },
  {
    "id": 367,
    "restaurentName": "Patten",
    "longitude": 104.38784,
    "latitude": 31.121606
  },
  {
    "id": 368,
    "restaurentName": "Aretha",
    "longitude": -52.8711249,
    "latitude": -28.6229959
  },
  {
    "id": 369,
    "restaurentName": "Federica",
    "longitude": 119.257096,
    "latitude": 32.627137
  },
  {
    "id": 370,
    "restaurentName": "Tawnya",
    "longitude": -58.7005845,
    "latitude": -34.6091049
  },
  {
    "id": 371,
    "restaurentName": "Janela",
    "longitude": 69.2281531,
    "latitude": 33.6042793
  },
  {
    "id": 372,
    "restaurentName": "Cthrine",
    "longitude": 119.663002,
    "latitude": -2.982802
  },
  {
    "id": 373,
    "restaurentName": "Dewey",
    "longitude": 101.765843,
    "latitude": 36.628305
  },
  {
    "id": 374,
    "restaurentName": "Filia",
    "longitude": 107.8894886,
    "latitude": -7.1944718
  },
  {
    "id": 375,
    "restaurentName": "Kassandra",
    "longitude": 117.134151,
    "latitude": 40.284979
  },
  {
    "id": 376,
    "restaurentName": "Leonie",
    "longitude": 120.6085163,
    "latitude": 17.460265
  },
  {
    "id": 377,
    "restaurentName": "Rachelle",
    "longitude": 129.3434808,
    "latitude": 36.0190178
  },
  {
    "id": 378,
    "restaurentName": "Hyacintha",
    "longitude": 2.2408938,
    "latitude": 48.891587
  },
  {
    "id": 379,
    "restaurentName": "Alyssa",
    "longitude": 36.6234912,
    "latitude": 53.3687505
  },
  {
    "id": 380,
    "restaurentName": "Shane",
    "longitude": 15.677579,
    "latitude": 52.8566588
  },
  {
    "id": 381,
    "restaurentName": "Garald",
    "longitude": 16.1870778,
    "latitude": 58.5928103
  },
  {
    "id": 382,
    "restaurentName": "Annamarie",
    "longitude": 7.5626411,
    "latitude": 6.0312787
  },
  {
    "id": 383,
    "restaurentName": "Ezechiel",
    "longitude": 106.309127,
    "latitude": 33.917649
  },
  {
    "id": 384,
    "restaurentName": "Orlan",
    "longitude": -67.8927472,
    "latitude": 10.2646995
  },
  {
    "id": 385,
    "restaurentName": "Peterus",
    "longitude": 122.5024428,
    "latitude": 10.6993883
  },
  {
    "id": 386,
    "restaurentName": "Mallissa",
    "longitude": 23.3938203,
    "latitude": 41.2349471
  },
  {
    "id": 387,
    "restaurentName": "Gusti",
    "longitude": 16.1964988,
    "latitude": 44.0407757
  },
  {
    "id": 388,
    "restaurentName": "Lyell",
    "longitude": 17.651743,
    "latitude": 49.6369249
  },
  {
    "id": 389,
    "restaurentName": "Bradford",
    "longitude": 108.50387,
    "latitude": 28.563927
  },
  {
    "id": 390,
    "restaurentName": "Fallon",
    "longitude": 5.2583334,
    "latitude": 51.6991519
  },
  {
    "id": 391,
    "restaurentName": "Waverley",
    "longitude": 113.4895468,
    "latitude": 23.3854292
  },
  {
    "id": 392,
    "restaurentName": "Celinda",
    "longitude": -113.2861822,
    "latitude": 54.7214094
  },
  {
    "id": 393,
    "restaurentName": "Selle",
    "longitude": 119.090741,
    "latitude": 25.315243
  },
  {
    "id": 394,
    "restaurentName": "Carmine",
    "longitude": 114.908872,
    "latitude": 26.789958
  },
  {
    "id": 395,
    "restaurentName": "Tomlin",
    "longitude": 44.600243,
    "latitude": 39.9592176
  },
  {
    "id": 396,
    "restaurentName": "Moina",
    "longitude": -51.5002318,
    "latitude": -22.2756953
  },
  {
    "id": 397,
    "restaurentName": "Maxy",
    "longitude": 26.4733066,
    "latitude": 60.5686508
  },
  {
    "id": 398,
    "restaurentName": "Viviene",
    "longitude": 111.8479156,
    "latitude": -7.1234674
  },
  {
    "id": 399,
    "restaurentName": "Miran",
    "longitude": 94.324152,
    "latitude": 43.236229
  },
  {
    "id": 400,
    "restaurentName": "Tammi",
    "longitude": 19.8078532,
    "latitude": 51.6710832
  },
  {
    "id": 401,
    "restaurentName": "Wenda",
    "longitude": 118.862331,
    "latitude": 29.803849
  },
  {
    "id": 402,
    "restaurentName": "Aprilette",
    "longitude": -8.7186315,
    "latitude": 39.7406374
  },
  {
    "id": 403,
    "restaurentName": "Kippy",
    "longitude": 11.9906,
    "latitude": 58.5748357
  },
  {
    "id": 404,
    "restaurentName": "Stavros",
    "longitude": 101.7178316,
    "latitude": 3.1523104
  },
  {
    "id": 405,
    "restaurentName": "Lonnard",
    "longitude": 23.65,
    "latitude": 54.4
  },
  {
    "id": 406,
    "restaurentName": "Belvia",
    "longitude": 25.6450741,
    "latitude": 63.4416393
  },
  {
    "id": 407,
    "restaurentName": "Parke",
    "longitude": 108.2822389,
    "latitude": -7.2597623
  },
  {
    "id": 408,
    "restaurentName": "Jake",
    "longitude": 20.526623,
    "latitude": 41.523117
  },
  {
    "id": 409,
    "restaurentName": "Lind",
    "longitude": 106.7112933,
    "latitude": -6.2835218
  },
  {
    "id": 410,
    "restaurentName": "Vince",
    "longitude": 20.4489216,
    "latitude": 44.786568
  },
  {
    "id": 411,
    "restaurentName": "Adria",
    "longitude": -7.5345759,
    "latitude": 41.2218624
  },
  {
    "id": 412,
    "restaurentName": "Nannie",
    "longitude": -83.7819816,
    "latitude": 10.2166111
  },
  {
    "id": 413,
    "restaurentName": "Noah",
    "longitude": 2.511999,
    "latitude": 43.7441795
  },
  {
    "id": 414,
    "restaurentName": "Asia",
    "longitude": 108.3848152,
    "latitude": -6.6312766
  },
  {
    "id": 415,
    "restaurentName": "Germain",
    "longitude": 119.996847,
    "latitude": 29.454189
  },
  {
    "id": 416,
    "restaurentName": "Emmalyn",
    "longitude": -74.115187,
    "latitude": 4.5604389
  },
  {
    "id": 417,
    "restaurentName": "Hugh",
    "longitude": 138.4565967,
    "latitude": 36.7846385
  },
  {
    "id": 418,
    "restaurentName": "Maddi",
    "longitude": 102.9715346,
    "latitude": 17.1390992
  },
  {
    "id": 419,
    "restaurentName": "Rainer",
    "longitude": 111.230547,
    "latitude": 35.575064
  },
  {
    "id": 420,
    "restaurentName": "Jacenta",
    "longitude": 103.575676,
    "latitude": 37.515114
  },
  {
    "id": 421,
    "restaurentName": "Shermie",
    "longitude": 113.870729,
    "latitude": 27.615202
  },
  {
    "id": 422,
    "restaurentName": "Herb",
    "longitude": 35.219546,
    "latitude": 31.8810103
  },
  {
    "id": 423,
    "restaurentName": "Stacia",
    "longitude": -78.8226909,
    "latitude": -7.1143481
  },
  {
    "id": 424,
    "restaurentName": "Anna-diana",
    "longitude": 110.1209019,
    "latitude": -7.3677628
  },
  {
    "id": 425,
    "restaurentName": "Melodee",
    "longitude": 8.271907,
    "latitude": 50.0897141
  },
  {
    "id": 426,
    "restaurentName": "Micheline",
    "longitude": 114.0486176,
    "latitude": 22.7843398
  },
  {
    "id": 427,
    "restaurentName": "Matthaeus",
    "longitude": 21.4105498,
    "latitude": 51.8407513
  },
  {
    "id": 428,
    "restaurentName": "Callida",
    "longitude": -9.1141307,
    "latitude": 38.4600166
  },
  {
    "id": 429,
    "restaurentName": "Gunther",
    "longitude": 23.6799766,
    "latitude": 39.1251493
  },
  {
    "id": 430,
    "restaurentName": "Hadlee",
    "longitude": -54.398656,
    "latitude": 5.6080848
  },
  {
    "id": 431,
    "restaurentName": "Caren",
    "longitude": 37.8618422,
    "latitude": 8.9721547
  },
  {
    "id": 432,
    "restaurentName": "Page",
    "longitude": 106.899566,
    "latitude": -6.406039
  },
  {
    "id": 433,
    "restaurentName": "Jerome",
    "longitude": 10.67397,
    "latitude": 35.70915
  },
  {
    "id": 434,
    "restaurentName": "Emylee",
    "longitude": -71.304474,
    "latitude": 7.44891
  },
  {
    "id": 435,
    "restaurentName": "Morlee",
    "longitude": 112.4909,
    "latitude": -6.9842
  },
  {
    "id": 436,
    "restaurentName": "Danyette",
    "longitude": 99.4172728,
    "latitude": 3.0708714
  },
  {
    "id": 437,
    "restaurentName": "Lyn",
    "longitude": 43.9362677,
    "latitude": 40.5854016
  },
  {
    "id": 438,
    "restaurentName": "Stanislaw",
    "longitude": 36.6498717,
    "latitude": 32.3964882
  },
  {
    "id": 439,
    "restaurentName": "Jilli",
    "longitude": -86.8066559,
    "latitude": 36.1457192
  },
  {
    "id": 440,
    "restaurentName": "Florian",
    "longitude": 7.6480296,
    "latitude": 11.2658847
  },
  {
    "id": 441,
    "restaurentName": "Hephzibah",
    "longitude": 109.1107114,
    "latitude": 15.383361
  },
  {
    "id": 442,
    "restaurentName": "Rainer",
    "longitude": 109.6163185,
    "latitude": -0.2467982
  },
  {
    "id": 443,
    "restaurentName": "Shamus",
    "longitude": 125.9931065,
    "latitude": 7.7014054
  },
  {
    "id": 444,
    "restaurentName": "Gabi",
    "longitude": 17.9282806,
    "latitude": 59.4075977
  },
  {
    "id": 445,
    "restaurentName": "Jennie",
    "longitude": 18.0936055,
    "latitude": 54.5412717
  },
  {
    "id": 446,
    "restaurentName": "Win",
    "longitude": -72.6315127,
    "latitude": -39.3681199
  },
  {
    "id": 447,
    "restaurentName": "Germain",
    "longitude": 114.022298,
    "latitude": 33.011529
  },
  {
    "id": 448,
    "restaurentName": "Damaris",
    "longitude": 122.1700081,
    "latitude": 40.1919977
  },
  {
    "id": 449,
    "restaurentName": "Trip",
    "longitude": 69.1149051,
    "latitude": 36.681449
  },
  {
    "id": 450,
    "restaurentName": "Raymund",
    "longitude": 2.4381665,
    "latitude": 48.6277459
  },
  {
    "id": 451,
    "restaurentName": "Hy",
    "longitude": 77.37263,
    "latitude": 39.816173
  },
  {
    "id": 452,
    "restaurentName": "Justino",
    "longitude": 103.133562,
    "latitude": 35.054002
  },
  {
    "id": 453,
    "restaurentName": "Paule",
    "longitude": -86.3528838,
    "latitude": 12.1564921
  },
  {
    "id": 454,
    "restaurentName": "Toby",
    "longitude": 120.395988,
    "latitude": 37.617937
  },
  {
    "id": 455,
    "restaurentName": "Joli",
    "longitude": 121.0312325,
    "latitude": 14.5671014
  },
  {
    "id": 456,
    "restaurentName": "Aurie",
    "longitude": 28.8883279,
    "latitude": 56.3360497
  },
  {
    "id": 457,
    "restaurentName": "Alvan",
    "longitude": 121.1457666,
    "latitude": 14.2038203
  },
  {
    "id": 458,
    "restaurentName": "Terencio",
    "longitude": -83.3949632,
    "latitude": 14.0391161
  },
  {
    "id": 459,
    "restaurentName": "Wilhelmine",
    "longitude": 120.9987005,
    "latitude": 14.5668553
  },
  {
    "id": 460,
    "restaurentName": "Katya",
    "longitude": 15.9333359,
    "latitude": 46.526163
  },
  {
    "id": 461,
    "restaurentName": "Bea",
    "longitude": 113.8019562,
    "latitude": -7.0428799
  },
  {
    "id": 462,
    "restaurentName": "Karilynn",
    "longitude": 35.743418,
    "latitude": 0.490107
  },
  {
    "id": 463,
    "restaurentName": "Horatio",
    "longitude": 17.841489,
    "latitude": 59.3609203
  },
  {
    "id": 464,
    "restaurentName": "Ketty",
    "longitude": -74.47033,
    "latitude": 8.9245
  },
  {
    "id": 465,
    "restaurentName": "Gerri",
    "longitude": 114.174842,
    "latitude": 27.598453
  },
  {
    "id": 466,
    "restaurentName": "Iseabal",
    "longitude": -58.216956,
    "latitude": -33.5295223
  },
  {
    "id": 467,
    "restaurentName": "Annabel",
    "longitude": -97.4996835,
    "latitude": 35.4674683
  },
  {
    "id": 468,
    "restaurentName": "Cordy",
    "longitude": 139.1107678,
    "latitude": 36.3798483
  },
  {
    "id": 469,
    "restaurentName": "Kristoforo",
    "longitude": 112.7032945,
    "latitude": -7.6426348
  },
  {
    "id": 470,
    "restaurentName": "Kristi",
    "longitude": 15.5620927,
    "latitude": -12.8549255
  },
  {
    "id": 471,
    "restaurentName": "Cristal",
    "longitude": -123.1207968,
    "latitude": 49.2725714
  },
  {
    "id": 472,
    "restaurentName": "Fowler",
    "longitude": 33.3646929,
    "latitude": 46.6522568
  },
  {
    "id": 473,
    "restaurentName": "Marilin",
    "longitude": 113.697829,
    "latitude": -8.137
  },
  {
    "id": 474,
    "restaurentName": "Ian",
    "longitude": 36.3938121,
    "latitude": 35.991705
  },
  {
    "id": 475,
    "restaurentName": "Bartholomeo",
    "longitude": 119.775799,
    "latitude": 39.978848
  },
  {
    "id": 476,
    "restaurentName": "Vanessa",
    "longitude": 14.1889828,
    "latitude": 50.1559431
  },
  {
    "id": 477,
    "restaurentName": "Kennan",
    "longitude": 25.2322629,
    "latitude": 61.8178084
  },
  {
    "id": 478,
    "restaurentName": "Roslyn",
    "longitude": 13.740288,
    "latitude": 49.1333104
  },
  {
    "id": 479,
    "restaurentName": "Kim",
    "longitude": 118.750903,
    "latitude": 30.931792
  },
  {
    "id": 480,
    "restaurentName": "Felicity",
    "longitude": 108.960747,
    "latitude": 34.26645
  },
  {
    "id": 481,
    "restaurentName": "Valentia",
    "longitude": -72.614288,
    "latitude": -12.73574
  },
  {
    "id": 482,
    "restaurentName": "Osbourn",
    "longitude": 121.9615308,
    "latitude": -10.4585809
  },
  {
    "id": 483,
    "restaurentName": "Herminia",
    "longitude": -4.5908196,
    "latitude": 13.2857271
  },
  {
    "id": 484,
    "restaurentName": "Georas",
    "longitude": -76.9398195,
    "latitude": -9.8975064
  },
  {
    "id": 485,
    "restaurentName": "Krissy",
    "longitude": -104.927894,
    "latitude": 24.762172
  },
  {
    "id": 486,
    "restaurentName": "Hortensia",
    "longitude": -74.8068454,
    "latitude": -8.4761212
  },
  {
    "id": 487,
    "restaurentName": "Nerissa",
    "longitude": -122.4407344,
    "latitude": 47.1427431
  },
  {
    "id": 488,
    "restaurentName": "Nicola",
    "longitude": 114.870554,
    "latitude": 27.882587
  },
  {
    "id": 489,
    "restaurentName": "Becki",
    "longitude": 121.6468481,
    "latitude": -8.8479584
  },
  {
    "id": 490,
    "restaurentName": "Fiann",
    "longitude": 121.0702405,
    "latitude": 14.578621
  },
  {
    "id": 491,
    "restaurentName": "Juliane",
    "longitude": -67.5082709,
    "latitude": -17.5982518
  },
  {
    "id": 492,
    "restaurentName": "Kirstyn",
    "longitude": 25.4141193,
    "latitude": -24.7762704
  },
  {
    "id": 493,
    "restaurentName": "Elwira",
    "longitude": 34.5739346,
    "latitude": 62.9123239
  },
  {
    "id": 494,
    "restaurentName": "Giulia",
    "longitude": -74.7,
    "latitude": -12.4
  },
  {
    "id": 495,
    "restaurentName": "Erhart",
    "longitude": -72.5667,
    "latitude": -37.0833
  },
  {
    "id": 496,
    "restaurentName": "Seumas",
    "longitude": 106.4966629,
    "latitude": 50.3100516
  },
  {
    "id": 497,
    "restaurentName": "Merl",
    "longitude": 33.3822764,
    "latitude": 35.1855659
  },
  {
    "id": 498,
    "restaurentName": "Fabe",
    "longitude": 120.284938,
    "latitude": 31.920658
  },
  {
    "id": 499,
    "restaurentName": "Rodd",
    "longitude": -75.8185314,
    "latitude": 5.4238154
  },
  {
    "id": 500,
    "restaurentName": "Wallis",
    "longitude": 30.2266634,
    "latitude": 69.4086014
  },
  {
    "id": 501,
    "restaurentName": "Nancey",
    "longitude": 121.0697978,
    "latitude": 14.7040142
  },
  {
    "id": 502,
    "restaurentName": "Mozelle",
    "longitude": 41.0495422,
    "latitude": 45.3106092
  },
  {
    "id": 503,
    "restaurentName": "Rebeca",
    "longitude": 16.4804071,
    "latitude": 53.271709
  },
  {
    "id": 504,
    "restaurentName": "Waldon",
    "longitude": -51.3429885,
    "latitude": -18.7643566
  },
  {
    "id": 505,
    "restaurentName": "Brendis",
    "longitude": -0.622129,
    "latitude": 52.643749
  },
  {
    "id": 506,
    "restaurentName": "Odele",
    "longitude": 28.3217259,
    "latitude": -26.2396883
  },
  {
    "id": 507,
    "restaurentName": "Freddy",
    "longitude": 117.22473,
    "latitude": 29.2813
  },
  {
    "id": 508,
    "restaurentName": "Joanie",
    "longitude": 141.4219969,
    "latitude": 38.3508588
  },
  {
    "id": 509,
    "restaurentName": "Ahmad",
    "longitude": -1.3218754,
    "latitude": 51.3684218
  },
  {
    "id": 510,
    "restaurentName": "Josepha",
    "longitude": 123.8961588,
    "latitude": 8.1113884
  },
  {
    "id": 511,
    "restaurentName": "Hermie",
    "longitude": -8.9140418,
    "latitude": 39.8768811
  },
  {
    "id": 512,
    "restaurentName": "Obidiah",
    "longitude": 89.9437755,
    "latitude": 22.454973
  },
  {
    "id": 513,
    "restaurentName": "Tanner",
    "longitude": 105.3241245,
    "latitude": -5.0898252
  },
  {
    "id": 514,
    "restaurentName": "Merrily",
    "longitude": 72.9614362,
    "latitude": 54.2084536
  },
  {
    "id": 515,
    "restaurentName": "Joey",
    "longitude": 117.9249002,
    "latitude": 35.8939566
  },
  {
    "id": 516,
    "restaurentName": "Lucila",
    "longitude": 111.851416,
    "latitude": 22.330081
  },
  {
    "id": 517,
    "restaurentName": "Ina",
    "longitude": 5.4352554,
    "latitude": 51.9094928
  },
  {
    "id": 518,
    "restaurentName": "Angie",
    "longitude": 16.4312865,
    "latitude": 49.6994861
  },
  {
    "id": 519,
    "restaurentName": "Cal",
    "longitude": -8.5238901,
    "latitude": 39.5240063
  },
  {
    "id": 520,
    "restaurentName": "Claudio",
    "longitude": 20.2827,
    "latitude": 53.58244
  },
  {
    "id": 521,
    "restaurentName": "Eric",
    "longitude": -9.0443293,
    "latitude": 38.9022136
  },
  {
    "id": 522,
    "restaurentName": "Deeann",
    "longitude": 8.5528746,
    "latitude": 35.8904199
  },
  {
    "id": 523,
    "restaurentName": "Stanton",
    "longitude": 20.5937585,
    "latitude": 45.8266432
  },
  {
    "id": 524,
    "restaurentName": "Lonnard",
    "longitude": 83.12263,
    "latitude": 46.85628
  },
  {
    "id": 525,
    "restaurentName": "Torrie",
    "longitude": -43.7334089,
    "latitude": -22.5284121
  },
  {
    "id": 526,
    "restaurentName": "Jeffrey",
    "longitude": 118.627917,
    "latitude": 35.79045
  },
  {
    "id": 527,
    "restaurentName": "Jacki",
    "longitude": 120.4355906,
    "latitude": 15.9275907
  },
  {
    "id": 528,
    "restaurentName": "Nettle",
    "longitude": 130.5052176,
    "latitude": -1.0320468
  },
  {
    "id": 529,
    "restaurentName": "Beulah",
    "longitude": 82.9751504,
    "latitude": 54.9086072
  },
  {
    "id": 530,
    "restaurentName": "Des",
    "longitude": 107.7073688,
    "latitude": -7.6569277
  },
  {
    "id": 531,
    "restaurentName": "Thorvald",
    "longitude": 106.1125201,
    "latitude": 10.1775604
  },
  {
    "id": 532,
    "restaurentName": "Manolo",
    "longitude": 104.3213093,
    "latitude": 52.2795871
  },
  {
    "id": 533,
    "restaurentName": "Shaughn",
    "longitude": -7.2895663,
    "latitude": 15.1689378
  },
  {
    "id": 534,
    "restaurentName": "Minerva",
    "longitude": 103.5218199,
    "latitude": 48.8231572
  },
  {
    "id": 535,
    "restaurentName": "Rozele",
    "longitude": 114.8923533,
    "latitude": 1.8480062
  },
  {
    "id": 536,
    "restaurentName": "Evelyn",
    "longitude": -73.8889499,
    "latitude": 6.6103028
  },
  {
    "id": 537,
    "restaurentName": "Leone",
    "longitude": -99.1324282,
    "latitude": 19.5037694
  },
  {
    "id": 538,
    "restaurentName": "Ketti",
    "longitude": -84.2805478,
    "latitude": 33.8092255
  },
  {
    "id": 539,
    "restaurentName": "Misha",
    "longitude": 54.1584621,
    "latitude": 51.5969624
  },
  {
    "id": 540,
    "restaurentName": "Ruth",
    "longitude": 72.4228661,
    "latitude": 32.454801
  },
  {
    "id": 541,
    "restaurentName": "Delmore",
    "longitude": 20.3685737,
    "latitude": 45.3815612
  },
  {
    "id": 542,
    "restaurentName": "Ruperta",
    "longitude": -17.0982397,
    "latitude": 32.6947983
  },
  {
    "id": 543,
    "restaurentName": "Ansel",
    "longitude": -9.3447224,
    "latitude": 38.9423498
  },
  {
    "id": 544,
    "restaurentName": "Zerk",
    "longitude": 6.0001426,
    "latitude": 49.988694
  },
  {
    "id": 545,
    "restaurentName": "Beck",
    "longitude": 40.810896,
    "latitude": 44.1264683
  },
  {
    "id": 546,
    "restaurentName": "Inge",
    "longitude": 115.358704,
    "latitude": 45.902561
  },
  {
    "id": 547,
    "restaurentName": "Erinn",
    "longitude": -7.4666729,
    "latitude": 37.2848363
  },
  {
    "id": 548,
    "restaurentName": "Lou",
    "longitude": 45.4271291,
    "latitude": 52.7112627
  },
  {
    "id": 549,
    "restaurentName": "Cristiano",
    "longitude": 0.63968,
    "latitude": 44.190357
  },
  {
    "id": 550,
    "restaurentName": "Marv",
    "longitude": 30.9521026,
    "latitude": 48.0398428
  },
  {
    "id": 551,
    "restaurentName": "Tomasine",
    "longitude": 46.2779705,
    "latitude": 36.2389448
  },
  {
    "id": 552,
    "restaurentName": "Barbabra",
    "longitude": 117.653994,
    "latitude": 28.488535
  },
  {
    "id": 553,
    "restaurentName": "Coraline",
    "longitude": 107.0568962,
    "latitude": -6.2377312
  },
  {
    "id": 554,
    "restaurentName": "Izaak",
    "longitude": 103.1369108,
    "latitude": 5.329576
  },
  {
    "id": 555,
    "restaurentName": "Kaitlyn",
    "longitude": -8.7370509,
    "latitude": 40.425421
  },
  {
    "id": 556,
    "restaurentName": "Margaret",
    "longitude": -68.8928558,
    "latitude": 10.4312095
  },
  {
    "id": 557,
    "restaurentName": "Nerti",
    "longitude": -8.7451818,
    "latitude": 39.7553682
  },
  {
    "id": 558,
    "restaurentName": "Dominica",
    "longitude": 117.953621,
    "latitude": 35.719396
  },
  {
    "id": 559,
    "restaurentName": "Gabie",
    "longitude": 121.0075554,
    "latitude": 14.5508865
  },
  {
    "id": 560,
    "restaurentName": "Frazier",
    "longitude": -70.6692655,
    "latitude": -33.4488897
  },
  {
    "id": 561,
    "restaurentName": "Chilton",
    "longitude": 108.7719766,
    "latitude": -7.4066528
  },
  {
    "id": 562,
    "restaurentName": "Thaddeus",
    "longitude": 49.710366,
    "latitude": 40.5323093
  },
  {
    "id": 563,
    "restaurentName": "Nahum",
    "longitude": 115.856121,
    "latitude": 28.759126
  },
  {
    "id": 564,
    "restaurentName": "Patty",
    "longitude": 22.561217,
    "latitude": 51.64438
  },
  {
    "id": 565,
    "restaurentName": "Silvio",
    "longitude": 121.5194667,
    "latitude": 31.2278735
  },
  {
    "id": 566,
    "restaurentName": "Hattie",
    "longitude": -67.6274785,
    "latitude": 10.29041
  },
  {
    "id": 567,
    "restaurentName": "Zacherie",
    "longitude": -80.3463754,
    "latitude": 8.5311099
  },
  {
    "id": 568,
    "restaurentName": "Dix",
    "longitude": 7.7212169,
    "latitude": 48.6443358
  },
  {
    "id": 569,
    "restaurentName": "Brit",
    "longitude": 16.1572755,
    "latitude": 46.7046395
  },
  {
    "id": 570,
    "restaurentName": "Shell",
    "longitude": 114.6453131,
    "latitude": -8.3650254
  },
  {
    "id": 571,
    "restaurentName": "Shandy",
    "longitude": 22.98815,
    "latitude": 53.14292
  },
  {
    "id": 572,
    "restaurentName": "Edlin",
    "longitude": 106.842169,
    "latitude": -6.254778
  },
  {
    "id": 573,
    "restaurentName": "Tyrone",
    "longitude": 18.4086339,
    "latitude": 54.7180477
  },
  {
    "id": 574,
    "restaurentName": "Therese",
    "longitude": 18.4823439,
    "latitude": 54.5997042
  },
  {
    "id": 575,
    "restaurentName": "Theressa",
    "longitude": 107.5593913,
    "latitude": -6.4146234
  },
  {
    "id": 576,
    "restaurentName": "Tim",
    "longitude": 124.1253751,
    "latitude": -8.4422524
  },
  {
    "id": 577,
    "restaurentName": "Gwen",
    "longitude": 45.3923,
    "latitude": 13.81436
  },
  {
    "id": 578,
    "restaurentName": "Myer",
    "longitude": 124.8499985,
    "latitude": 6.5999999
  },
  {
    "id": 579,
    "restaurentName": "Bord",
    "longitude": 73.1511314,
    "latitude": 34.0556839
  },
  {
    "id": 580,
    "restaurentName": "Nana",
    "longitude": 2.3514328,
    "latitude": 48.9175083
  },
  {
    "id": 581,
    "restaurentName": "Clevie",
    "longitude": 100.54994,
    "latitude": 35.2589
  },
  {
    "id": 582,
    "restaurentName": "Lynette",
    "longitude": 111.588486,
    "latitude": 31.255103
  },
  {
    "id": 583,
    "restaurentName": "Suzanna",
    "longitude": -75.9289046,
    "latitude": 20.6482704
  },
  {
    "id": 584,
    "restaurentName": "Cherin",
    "longitude": 101.3052635,
    "latitude": 13.8170825
  },
  {
    "id": 585,
    "restaurentName": "Winni",
    "longitude": 33.1239049,
    "latitude": 1.2413682
  },
  {
    "id": 586,
    "restaurentName": "Saraann",
    "longitude": 109.6341727,
    "latitude": -6.9947862
  },
  {
    "id": 587,
    "restaurentName": "Gustavus",
    "longitude": -73.7738499,
    "latitude": -42.6232593
  },
  {
    "id": 588,
    "restaurentName": "Caralie",
    "longitude": 112.294107,
    "latitude": 23.177772
  },
  {
    "id": 589,
    "restaurentName": "Vidovik",
    "longitude": 106.73333,
    "latitude": 48.63333
  },
  {
    "id": 590,
    "restaurentName": "Wilhelmine",
    "longitude": 22.287883,
    "latitude": 48.6208
  },
  {
    "id": 591,
    "restaurentName": "Barbi",
    "longitude": -75.023736,
    "latitude": 5.119358
  },
  {
    "id": 592,
    "restaurentName": "Randie",
    "longitude": 31.3368529,
    "latitude": 29.8483192
  },
  {
    "id": 593,
    "restaurentName": "Carmelia",
    "longitude": -38.7891606,
    "latitude": -12.7732
  },
  {
    "id": 594,
    "restaurentName": "Tiebold",
    "longitude": -79.4760133,
    "latitude": 22.5064672
  },
  {
    "id": 595,
    "restaurentName": "Cheryl",
    "longitude": -58.4985279,
    "latitude": -34.5903044
  },
  {
    "id": 596,
    "restaurentName": "Daniella",
    "longitude": 116.363671,
    "latitude": 39.957737
  },
  {
    "id": 597,
    "restaurentName": "Glad",
    "longitude": 21.7037935,
    "latitude": 65.8261477
  },
  {
    "id": 598,
    "restaurentName": "Abbot",
    "longitude": 25.5572383,
    "latitude": 58.629948
  },
  {
    "id": 599,
    "restaurentName": "Kellia",
    "longitude": -44.3290923,
    "latitude": -2.5421083
  },
  {
    "id": 600,
    "restaurentName": "Noach",
    "longitude": 5.7524581,
    "latitude": 53.2060963
  },
  {
    "id": 601,
    "restaurentName": "Irene",
    "longitude": 113.400216,
    "latitude": -8.1450324
  },
  {
    "id": 602,
    "restaurentName": "Brandi",
    "longitude": 116.414961,
    "latitude": 39.896949
  },
  {
    "id": 603,
    "restaurentName": "Mitchael",
    "longitude": 22.7575987,
    "latitude": 54.6410525
  },
  {
    "id": 604,
    "restaurentName": "Yalonda",
    "longitude": 113.364619,
    "latitude": 39.21485
  },
  {
    "id": 605,
    "restaurentName": "Zebulen",
    "longitude": 111.426122,
    "latitude": 21.941555
  },
  {
    "id": 606,
    "restaurentName": "Auria",
    "longitude": 123.6419711,
    "latitude": 10.103645
  },
  {
    "id": 607,
    "restaurentName": "Amelina",
    "longitude": 16.8773821,
    "latitude": 49.5372506
  },
  {
    "id": 608,
    "restaurentName": "Tabina",
    "longitude": 103.46083,
    "latitude": 52.86917
  },
  {
    "id": 609,
    "restaurentName": "Loren",
    "longitude": 124.770152,
    "latitude": 8.6427567
  },
  {
    "id": 610,
    "restaurentName": "Ardelle",
    "longitude": -64.3204306,
    "latitude": -36.6419362
  },
  {
    "id": 611,
    "restaurentName": "Sloane",
    "longitude": -122.2029832,
    "latitude": 37.8336281
  },
  {
    "id": 612,
    "restaurentName": "Geraldine",
    "longitude": 23.956344,
    "latitude": 54.922013
  },
  {
    "id": 613,
    "restaurentName": "Alain",
    "longitude": 101.968352,
    "latitude": 35.950284
  },
  {
    "id": 614,
    "restaurentName": "Jennilee",
    "longitude": 16.83363,
    "latitude": 50.98804
  },
  {
    "id": 615,
    "restaurentName": "Cynthea",
    "longitude": 102.625198,
    "latitude": 48.659828
  },
  {
    "id": 616,
    "restaurentName": "Morey",
    "longitude": 87.771182,
    "latitude": 28.363741
  },
  {
    "id": 617,
    "restaurentName": "Wynny",
    "longitude": 120.99453,
    "latitude": 37.082157
  },
  {
    "id": 618,
    "restaurentName": "Leland",
    "longitude": 105.8451758,
    "latitude": 19.992977
  },
  {
    "id": 619,
    "restaurentName": "Ignatius",
    "longitude": 108.355232,
    "latitude": 34.262709
  },
  {
    "id": 620,
    "restaurentName": "Lotte",
    "longitude": 106.8254167,
    "latitude": 47.9644609
  },
  {
    "id": 621,
    "restaurentName": "Dani",
    "longitude": 100.5593109,
    "latitude": 13.7768017
  },
  {
    "id": 622,
    "restaurentName": "Nancie",
    "longitude": 24.9390156,
    "latitude": 42.1309737
  },
  {
    "id": 623,
    "restaurentName": "Nester",
    "longitude": 110.389141,
    "latitude": -6.987312
  },
  {
    "id": 624,
    "restaurentName": "Devonne",
    "longitude": 22.84308,
    "latitude": 16.06589
  },
  {
    "id": 625,
    "restaurentName": "Hyacinthie",
    "longitude": 103.798484,
    "latitude": 30.405177
  },
  {
    "id": 626,
    "restaurentName": "Ruthe",
    "longitude": -91.4130682,
    "latitude": 14.5421715
  },
  {
    "id": 627,
    "restaurentName": "Raul",
    "longitude": 129.3209986,
    "latitude": 40.9612198
  },
  {
    "id": 628,
    "restaurentName": "Ossie",
    "longitude": 118.017938,
    "latitude": 36.806669
  },
  {
    "id": 629,
    "restaurentName": "Beck",
    "longitude": 31.1710389,
    "latitude": -14.1700712
  },
  {
    "id": 630,
    "restaurentName": "Gui",
    "longitude": 36.25633,
    "latitude": 47.66389
  },
  {
    "id": 631,
    "restaurentName": "Lloyd",
    "longitude": 5.449605,
    "latitude": 45.5423201
  },
  {
    "id": 632,
    "restaurentName": "Porty",
    "longitude": 119.8021001,
    "latitude": 31.3505924
  },
  {
    "id": 633,
    "restaurentName": "Barbabra",
    "longitude": -42.7857583,
    "latitude": -12.7959196
  },
  {
    "id": 634,
    "restaurentName": "Nye",
    "longitude": 117.8314494,
    "latitude": 8.7963805
  },
  {
    "id": 635,
    "restaurentName": "Denver",
    "longitude": -84.39,
    "latitude": 33.75
  },
  {
    "id": 636,
    "restaurentName": "Darby",
    "longitude": -60.9758292,
    "latitude": 14.0242809
  },
  {
    "id": 637,
    "restaurentName": "Hulda",
    "longitude": 119.9406947,
    "latitude": 15.6823401
  },
  {
    "id": 638,
    "restaurentName": "Benedetta",
    "longitude": 103.133562,
    "latitude": 35.054002
  },
  {
    "id": 639,
    "restaurentName": "Kayla",
    "longitude": 5.8978018,
    "latitude": 43.4945737
  },
  {
    "id": 640,
    "restaurentName": "Regan",
    "longitude": 108.4572788,
    "latitude": -7.0029794
  },
  {
    "id": 641,
    "restaurentName": "Turner",
    "longitude": 119.64328,
    "latitude": 41.403128
  },
  {
    "id": 642,
    "restaurentName": "Had",
    "longitude": -2.6467239,
    "latitude": 51.4063964
  },
  {
    "id": 643,
    "restaurentName": "Nevil",
    "longitude": 120.953061,
    "latitude": 5.990033
  },
  {
    "id": 644,
    "restaurentName": "Terrance",
    "longitude": 121.0702642,
    "latitude": 14.7342524
  },
  {
    "id": 645,
    "restaurentName": "Randy",
    "longitude": 110.1402594,
    "latitude": -7.150975
  },
  {
    "id": 646,
    "restaurentName": "Yvon",
    "longitude": 43.8548861,
    "latitude": 49.4774391
  },
  {
    "id": 647,
    "restaurentName": "Valenka",
    "longitude": 15.0091903,
    "latitude": 58.5563017
  },
  {
    "id": 648,
    "restaurentName": "Halette",
    "longitude": 15.55963,
    "latitude": 53.54091
  },
  {
    "id": 649,
    "restaurentName": "Marcellina",
    "longitude": 114.632886,
    "latitude": 39.781583
  },
  {
    "id": 650,
    "restaurentName": "Brien",
    "longitude": 106.804564,
    "latitude": -6.588201
  },
  {
    "id": 651,
    "restaurentName": "Garnette",
    "longitude": 117.314323,
    "latitude": 39.086569
  },
  {
    "id": 652,
    "restaurentName": "Adair",
    "longitude": 113.4073,
    "latitude": -8.2794
  },
  {
    "id": 653,
    "restaurentName": "Tynan",
    "longitude": 18.2509127,
    "latitude": 59.2264863
  },
  {
    "id": 654,
    "restaurentName": "Neely",
    "longitude": 113.529424,
    "latitude": 23.632671
  },
  {
    "id": 655,
    "restaurentName": "Larry",
    "longitude": -96.889555,
    "latitude": 32.8094568
  },
  {
    "id": 656,
    "restaurentName": "Sherrie",
    "longitude": 121.5670029,
    "latitude": 16.8907872
  },
  {
    "id": 657,
    "restaurentName": "Orrin",
    "longitude": 89.208761,
    "latitude": 29.686366
  },
  {
    "id": 658,
    "restaurentName": "Rosalinde",
    "longitude": 31.5958532,
    "latitude": 51.8911132
  },
  {
    "id": 659,
    "restaurentName": "Trever",
    "longitude": -1.1371011,
    "latitude": 37.9868856
  },
  {
    "id": 660,
    "restaurentName": "Randi",
    "longitude": 126.4361995,
    "latitude": 7.5958893
  },
  {
    "id": 661,
    "restaurentName": "Geoff",
    "longitude": 122.207215,
    "latitude": 29.985295
  },
  {
    "id": 662,
    "restaurentName": "Pattie",
    "longitude": 106.3875898,
    "latitude": -6.4930095
  },
  {
    "id": 663,
    "restaurentName": "Austine",
    "longitude": 33.3822764,
    "latitude": 35.1855659
  },
  {
    "id": 664,
    "restaurentName": "Kelcey",
    "longitude": -75.7197039,
    "latitude": 20.9570351
  },
  {
    "id": 665,
    "restaurentName": "Roxanna",
    "longitude": 38.3911151,
    "latitude": 55.931354
  },
  {
    "id": 666,
    "restaurentName": "Langsdon",
    "longitude": -72.001055,
    "latitude": 45.5787215
  },
  {
    "id": 667,
    "restaurentName": "Hank",
    "longitude": 120.5285998,
    "latitude": 15.5356992
  },
  {
    "id": 668,
    "restaurentName": "Dudley",
    "longitude": 110.1317822,
    "latitude": -7.5989183
  },
  {
    "id": 669,
    "restaurentName": "Shannen",
    "longitude": 114.833005,
    "latitude": 29.549889
  },
  {
    "id": 670,
    "restaurentName": "Kelvin",
    "longitude": 123.7414,
    "latitude": -8.2284
  },
  {
    "id": 671,
    "restaurentName": "Aubry",
    "longitude": -173.9836854,
    "latitude": -18.6476779
  },
  {
    "id": 672,
    "restaurentName": "Phaedra",
    "longitude": -58.4114593,
    "latitude": -34.6507337
  },
  {
    "id": 673,
    "restaurentName": "Vivianna",
    "longitude": 112.8015745,
    "latitude": -8.2288463
  },
  {
    "id": 674,
    "restaurentName": "Renae",
    "longitude": -68.1429994,
    "latitude": 47.0162884
  },
  {
    "id": 675,
    "restaurentName": "Quintana",
    "longitude": 123.756628,
    "latitude": 13.29664
  },
  {
    "id": 676,
    "restaurentName": "Aarika",
    "longitude": 32.5299379,
    "latitude": 46.0771644
  },
  {
    "id": 677,
    "restaurentName": "Jasper",
    "longitude": 121.42076,
    "latitude": 28.65638
  },
  {
    "id": 678,
    "restaurentName": "Florrie",
    "longitude": 13.8300629,
    "latitude": 58.3493356
  },
  {
    "id": 679,
    "restaurentName": "Tiphany",
    "longitude": 120.4674034,
    "latitude": 15.9769657
  },
  {
    "id": 680,
    "restaurentName": "Tory",
    "longitude": 115.5207358,
    "latitude": -8.3465933
  },
  {
    "id": 681,
    "restaurentName": "Ely",
    "longitude": 104.066801,
    "latitude": 30.572815
  },
  {
    "id": 682,
    "restaurentName": "Natal",
    "longitude": 120.9905,
    "latitude": -8.7597358
  },
  {
    "id": 683,
    "restaurentName": "Emmy",
    "longitude": 7.5123813,
    "latitude": 51.5195303
  },
  {
    "id": 684,
    "restaurentName": "Raynell",
    "longitude": 99.0626377,
    "latitude": 2.965147
  },
  {
    "id": 685,
    "restaurentName": "Idalina",
    "longitude": 119.567785,
    "latitude": 31.532311
  },
  {
    "id": 686,
    "restaurentName": "Christophorus",
    "longitude": 121.0190818,
    "latitude": 14.5697429
  },
  {
    "id": 687,
    "restaurentName": "Maybelle",
    "longitude": 96.2283035,
    "latitude": 5.2362218
  },
  { "id": 688, "restaurentName": "Gabe", "longitude": 97.15, "latitude": 46.9 },
  {
    "id": 689,
    "restaurentName": "Dickie",
    "longitude": 12.5183307,
    "latitude": 11.804149
  },
  {
    "id": 690,
    "restaurentName": "Adelice",
    "longitude": 96.8217017,
    "latitude": -12.1450486
  },
  {
    "id": 691,
    "restaurentName": "Rhea",
    "longitude": 112.420603,
    "latitude": -7.130192
  },
  {
    "id": 692,
    "restaurentName": "Starr",
    "longitude": -92.9105987,
    "latitude": 44.9468994
  },
  {
    "id": 693,
    "restaurentName": "Elvin",
    "longitude": 108.0261901,
    "latitude": -7.0549155
  },
  {
    "id": 694,
    "restaurentName": "Pamelina",
    "longitude": -58.4114593,
    "latitude": -34.6507337
  },
  {
    "id": 695,
    "restaurentName": "Charita",
    "longitude": -42.1365821,
    "latitude": -19.7864376
  },
  {
    "id": 696,
    "restaurentName": "Ella",
    "longitude": 30.3251493,
    "latitude": 59.9335031
  },
  {
    "id": 697,
    "restaurentName": "Darrin",
    "longitude": 45.3024464,
    "latitude": 43.2900441
  },
  {
    "id": 698,
    "restaurentName": "Sinclare",
    "longitude": 37.4387894,
    "latitude": 5.3404492
  },
  {
    "id": 699,
    "restaurentName": "Andras",
    "longitude": 22.3032419,
    "latitude": 38.9175948
  },
  {
    "id": 700,
    "restaurentName": "Liza",
    "longitude": 108.4543113,
    "latitude": -7.2526036
  },
  {
    "id": 701,
    "restaurentName": "Hedvig",
    "longitude": 27.7095936,
    "latitude": 60.5848255
  },
  {
    "id": 702,
    "restaurentName": "Melanie",
    "longitude": 119.7429815,
    "latitude": 5.0452657
  },
  {
    "id": 703,
    "restaurentName": "Bari",
    "longitude": 120.9946407,
    "latitude": 13.4109892
  },
  {
    "id": 704,
    "restaurentName": "Nels",
    "longitude": 107.353437,
    "latitude": 22.405325
  },
  {
    "id": 705,
    "restaurentName": "Joycelin",
    "longitude": -108.5,
    "latitude": 45.78
  },
  {
    "id": 706,
    "restaurentName": "Emmye",
    "longitude": -38.7577605,
    "latitude": -12.034087
  },
  {
    "id": 707,
    "restaurentName": "Koenraad",
    "longitude": 135.123385,
    "latitude": 48.4089744
  },
  {
    "id": 708,
    "restaurentName": "Lissie",
    "longitude": 22.051777,
    "latitude": 51.4090959
  },
  {
    "id": 709,
    "restaurentName": "Clair",
    "longitude": 125.5593311,
    "latitude": 9.1374129
  },
  {
    "id": 710,
    "restaurentName": "Simonette",
    "longitude": 20.2827,
    "latitude": 53.58244
  },
  {
    "id": 711,
    "restaurentName": "Rudd",
    "longitude": -48.3242858,
    "latitude": -10.249091
  },
  {
    "id": 712,
    "restaurentName": "Annabal",
    "longitude": 18.3427724,
    "latitude": 59.4015532
  },
  {
    "id": 713,
    "restaurentName": "Barbara",
    "longitude": 0.0494681,
    "latitude": 46.614036
  },
  {
    "id": 714,
    "restaurentName": "Faythe",
    "longitude": 15.7019393,
    "latitude": 49.374032
  },
  {
    "id": 715,
    "restaurentName": "Trina",
    "longitude": -122.497668,
    "latitude": 37.7813454
  },
  {
    "id": 716,
    "restaurentName": "Pren",
    "longitude": 9.5678116,
    "latitude": 47.1792078
  },
  {
    "id": 717,
    "restaurentName": "Josselyn",
    "longitude": 99.950724,
    "latitude": 16.167313
  },
  {
    "id": 718,
    "restaurentName": "Davine",
    "longitude": -44.1720266,
    "latitude": -4.055821
  },
  {
    "id": 719,
    "restaurentName": "Ashlan",
    "longitude": -57.6201482,
    "latitude": -37.9599734
  },
  {
    "id": 720,
    "restaurentName": "Christel",
    "longitude": 116.2836124,
    "latitude": -8.7896834
  },
  {
    "id": 721,
    "restaurentName": "Germain",
    "longitude": 78.0495272,
    "latitude": 53.7253057
  },
  {
    "id": 722,
    "restaurentName": "Farlay",
    "longitude": 32.9831998,
    "latitude": -24.5323166
  },
  {
    "id": 723,
    "restaurentName": "Paulita",
    "longitude": 14.0845863,
    "latitude": 45.0804254
  },
  {
    "id": 724,
    "restaurentName": "Sandye",
    "longitude": 126.4503169,
    "latitude": 36.7844993
  },
  {
    "id": 725,
    "restaurentName": "Maggee",
    "longitude": 106.8672736,
    "latitude": -6.2900045
  },
  {
    "id": 726,
    "restaurentName": "Renaud",
    "longitude": -49.5483671,
    "latitude": -26.424537
  },
  {
    "id": 727,
    "restaurentName": "Ella",
    "longitude": -69.5523252,
    "latitude": 19.2983328
  },
  {
    "id": 728,
    "restaurentName": "Vasili",
    "longitude": 129.1142915,
    "latitude": 37.5247192
  },
  {
    "id": 729,
    "restaurentName": "Vincenz",
    "longitude": 128.4136847,
    "latitude": 50.9076315
  },
  {
    "id": 730,
    "restaurentName": "Alanson",
    "longitude": -65.3301049,
    "latitude": -10.789321
  },
  {
    "id": 731,
    "restaurentName": "Carmine",
    "longitude": -70.4047314,
    "latitude": 18.9337202
  },
  {
    "id": 732,
    "restaurentName": "Ermanno",
    "longitude": 22.7468094,
    "latitude": 58.9982038
  },
  {
    "id": 733,
    "restaurentName": "Ker",
    "longitude": 8.8803925,
    "latitude": 6.2894715
  },
  {
    "id": 734,
    "restaurentName": "Catherine",
    "longitude": -71.9776285,
    "latitude": -39.2722541
  },
  {
    "id": 735,
    "restaurentName": "Erik",
    "longitude": 96.1367935,
    "latitude": 20.4314732
  },
  {
    "id": 736,
    "restaurentName": "Hurley",
    "longitude": 110.5066489,
    "latitude": -7.7812913
  },
  {
    "id": 737,
    "restaurentName": "Anastasia",
    "longitude": -84.081696,
    "latitude": 9.891058
  },
  {
    "id": 738,
    "restaurentName": "Abrahan",
    "longitude": 25.325383,
    "latitude": 50.747233
  },
  {
    "id": 739,
    "restaurentName": "Isadora",
    "longitude": -91.1779176,
    "latitude": 14.7668705
  },
  {
    "id": 740,
    "restaurentName": "Aggie",
    "longitude": 120.863056,
    "latitude": 31.267107
  },
  {
    "id": 741,
    "restaurentName": "Sibeal",
    "longitude": 112.444197,
    "latitude": 30.921396
  },
  {
    "id": 742,
    "restaurentName": "Langsdon",
    "longitude": 37.1181564,
    "latitude": 59.2074845
  },
  {
    "id": 743,
    "restaurentName": "Starla",
    "longitude": 35.21371,
    "latitude": 31.768319
  },
  {
    "id": 744,
    "restaurentName": "Florie",
    "longitude": 10.0383761,
    "latitude": 53.6447228
  },
  {
    "id": 745,
    "restaurentName": "Larry",
    "longitude": -77.2666969,
    "latitude": 5.709563
  },
  {
    "id": 746,
    "restaurentName": "Olivier",
    "longitude": 33.0057261,
    "latitude": 2.7798518
  },
  {
    "id": 747,
    "restaurentName": "Dasie",
    "longitude": 121.6539966,
    "latitude": 18.1590139
  },
  {
    "id": 748,
    "restaurentName": "Grover",
    "longitude": 116.024389,
    "latitude": 28.75778
  },
  {
    "id": 749,
    "restaurentName": "Mylo",
    "longitude": 27.8299056,
    "latitude": 53.5234017
  },
  {
    "id": 750,
    "restaurentName": "Dall",
    "longitude": 110.7092666,
    "latitude": -7.7351493
  },
  {
    "id": 751,
    "restaurentName": "Ashton",
    "longitude": -69.3044885,
    "latitude": 18.4581133
  },
  {
    "id": 752,
    "restaurentName": "Ellie",
    "longitude": 107.8346924,
    "latitude": 21.1062206
  },
  {
    "id": 753,
    "restaurentName": "Enrika",
    "longitude": 107.172085,
    "latitude": -7.4212735
  },
  {
    "id": 754,
    "restaurentName": "Trip",
    "longitude": -64.6866092,
    "latitude": 10.19062
  },
  {
    "id": 755,
    "restaurentName": "Gabbey",
    "longitude": 125.5372025,
    "latitude": 6.456558
  },
  {
    "id": 756,
    "restaurentName": "Dulcie",
    "longitude": 44.0865232,
    "latitude": 16.3762123
  },
  {
    "id": 757,
    "restaurentName": "Tony",
    "longitude": 104.2279672,
    "latitude": 16.3413382
  },
  {
    "id": 758,
    "restaurentName": "Vannie",
    "longitude": 20.3301247,
    "latitude": 52.8186154
  },
  {
    "id": 759,
    "restaurentName": "Alistair",
    "longitude": -46.3204265,
    "latitude": -23.3969682
  },
  {
    "id": 760,
    "restaurentName": "Audie",
    "longitude": -98.7623874,
    "latitude": 20.0910963
  },
  {
    "id": 761,
    "restaurentName": "Trixi",
    "longitude": 31.3198491,
    "latitude": -17.3013059
  },
  {
    "id": 762,
    "restaurentName": "Christine",
    "longitude": -48.6489134,
    "latitude": -26.8039789
  },
  {
    "id": 763,
    "restaurentName": "Ramona",
    "longitude": 22.9355752,
    "latitude": 44.0086458
  },
  {
    "id": 764,
    "restaurentName": "Tannie",
    "longitude": 34.97298,
    "latitude": 32.762127
  },
  {
    "id": 765,
    "restaurentName": "Paulo",
    "longitude": 119.700816,
    "latitude": 29.0994968
  },
  {
    "id": 766,
    "restaurentName": "Wadsworth",
    "longitude": 113.2475087,
    "latitude": 23.1243988
  },
  {
    "id": 767,
    "restaurentName": "Greta",
    "longitude": 115.9608,
    "latitude": 28.264515
  },
  {
    "id": 768,
    "restaurentName": "Lula",
    "longitude": 18.9597308,
    "latitude": 53.7074084
  },
  {
    "id": 769,
    "restaurentName": "Free",
    "longitude": 140.9596925,
    "latitude": 39.7007906
  },
  {
    "id": 770,
    "restaurentName": "Rina",
    "longitude": 121.532286,
    "latitude": 31.236833
  },
  {
    "id": 771,
    "restaurentName": "Jerald",
    "longitude": -7.9582238,
    "latitude": 40.5077508
  },
  {
    "id": 772,
    "restaurentName": "Boycie",
    "longitude": 111.3709499,
    "latitude": -6.7076379
  },
  {
    "id": 773,
    "restaurentName": "Stefania",
    "longitude": 120.3688477,
    "latitude": 15.8368547
  },
  {
    "id": 774,
    "restaurentName": "Lena",
    "longitude": -113.33531,
    "latitude": 53.83345
  },
  {
    "id": 775,
    "restaurentName": "Augustina",
    "longitude": 82.6436105,
    "latitude": 55.0868852
  },
  {
    "id": 776,
    "restaurentName": "Megan",
    "longitude": 44.018505,
    "latitude": 49.3268319
  },
  {
    "id": 777,
    "restaurentName": "Cherey",
    "longitude": 124.6806,
    "latitude": 10.9423
  },
  {
    "id": 778,
    "restaurentName": "Genia",
    "longitude": 31.0564425,
    "latitude": 30.4338104
  },
  {
    "id": 779,
    "restaurentName": "Lory",
    "longitude": -77.856738,
    "latitude": 18.0335359
  },
  {
    "id": 780,
    "restaurentName": "Sonny",
    "longitude": 13.6492904,
    "latitude": 52.416925
  },
  {
    "id": 781,
    "restaurentName": "Lanae",
    "longitude": 119.4015739,
    "latitude": 41.245445
  },
  {
    "id": 782,
    "restaurentName": "Wylie",
    "longitude": 112.1698476,
    "latitude": -7.7607338
  },
  {
    "id": 783,
    "restaurentName": "Olia",
    "longitude": 131.3336177,
    "latitude": 31.8741071
  },
  {
    "id": 784,
    "restaurentName": "Willi",
    "longitude": -64.06542,
    "latitude": 46.81685
  },
  {
    "id": 785,
    "restaurentName": "Steward",
    "longitude": 110.4088,
    "latitude": -6.97832
  },
  {
    "id": 786,
    "restaurentName": "Ryley",
    "longitude": -46.3408798,
    "latitude": -23.5198964
  },
  {
    "id": 787,
    "restaurentName": "Nata",
    "longitude": -91.1833043,
    "latitude": 30.372807
  },
  {
    "id": 788,
    "restaurentName": "Maxy",
    "longitude": 117.205832,
    "latitude": 31.015709
  },
  {
    "id": 789,
    "restaurentName": "Kathryne",
    "longitude": 127.8691991,
    "latitude": 26.3577675
  },
  {
    "id": 790,
    "restaurentName": "Korry",
    "longitude": 112.65139,
    "latitude": 42.73583
  },
  {
    "id": 791,
    "restaurentName": "Ettore",
    "longitude": 140.1139616,
    "latitude": 36.0917434
  },
  {
    "id": 792,
    "restaurentName": "Bill",
    "longitude": -38.5014136,
    "latitude": -12.9722184
  },
  {
    "id": 793,
    "restaurentName": "Cornelle",
    "longitude": 18.0684457,
    "latitude": 59.4291534
  },
  {
    "id": 794,
    "restaurentName": "Leoline",
    "longitude": 90.21512,
    "latitude": 31.644875
  },
  {
    "id": 795,
    "restaurentName": "Salim",
    "longitude": 124.7630307,
    "latitude": -8.3743231
  },
  {
    "id": 796,
    "restaurentName": "Jefferson",
    "longitude": 121.6889505,
    "latitude": 13.9734064
  },
  {
    "id": 797,
    "restaurentName": "Amos",
    "longitude": 25.0792189,
    "latitude": 31.7579946
  },
  {
    "id": 798,
    "restaurentName": "Gardie",
    "longitude": 46.4583999,
    "latitude": 57.3725
  },
  {
    "id": 799,
    "restaurentName": "Garrick",
    "longitude": 21.4298411,
    "latitude": 41.9924293
  },
  {
    "id": 800,
    "restaurentName": "Andra",
    "longitude": 114.849821,
    "latitude": 23.70475
  },
  {
    "id": 801,
    "restaurentName": "Hesther",
    "longitude": -78.13283,
    "latitude": 48.13348
  },
  {
    "id": 802,
    "restaurentName": "Bron",
    "longitude": 44.4730333,
    "latitude": -12.3202466
  },
  {
    "id": 803,
    "restaurentName": "Sheelah",
    "longitude": 57.5334616,
    "latitude": -20.2180558
  },
  {
    "id": 804,
    "restaurentName": "Yance",
    "longitude": -58.5867617,
    "latitude": -34.5434158
  },
  {
    "id": 805,
    "restaurentName": "Cesya",
    "longitude": 51.678158,
    "latitude": 15.4217858
  },
  {
    "id": 806,
    "restaurentName": "Marmaduke",
    "longitude": 37.1901616,
    "latitude": 19.5903471
  },
  {
    "id": 807,
    "restaurentName": "Manfred",
    "longitude": 32.583994,
    "latitude": 52.1814619
  },
  {
    "id": 808,
    "restaurentName": "Shelley",
    "longitude": 19.8227166,
    "latitude": 45.0075322
  },
  {
    "id": 809,
    "restaurentName": "Sissy",
    "longitude": 108.631718,
    "latitude": 34.554624
  },
  {
    "id": 810,
    "restaurentName": "Gifford",
    "longitude": -71.0646337,
    "latitude": 42.3652917
  },
  {
    "id": 811,
    "restaurentName": "Kenton",
    "longitude": 111.2138,
    "latitude": 23.320477
  },
  {
    "id": 812,
    "restaurentName": "Axe",
    "longitude": 12.0083611,
    "latitude": 57.7184535
  },
  {
    "id": 813,
    "restaurentName": "Valentijn",
    "longitude": 2.5135985,
    "latitude": 45.2977605
  },
  {
    "id": 814,
    "restaurentName": "Nerty",
    "longitude": -0.1518541,
    "latitude": 44.3324131
  },
  {
    "id": 815,
    "restaurentName": "Jerrine",
    "longitude": 113.4276436,
    "latitude": 30.3645144
  },
  {
    "id": 816,
    "restaurentName": "Collette",
    "longitude": -113.5832367,
    "latitude": 52.675914
  },
  {
    "id": 817,
    "restaurentName": "Steve",
    "longitude": -8.7570417,
    "latitude": 40.1430734
  },
  {
    "id": 818,
    "restaurentName": "Riordan",
    "longitude": 15.0266516,
    "latitude": 50.7911439
  },
  {
    "id": 819,
    "restaurentName": "Vanny",
    "longitude": -51.7250108,
    "latitude": -29.962127
  },
  {
    "id": 820,
    "restaurentName": "Rudyard",
    "longitude": 109.150848,
    "latitude": 28.957666
  },
  {
    "id": 821,
    "restaurentName": "Sam",
    "longitude": -88.2461183,
    "latitude": 14.372734
  },
  {
    "id": 822,
    "restaurentName": "Filbert",
    "longitude": 121.0657914,
    "latitude": 14.7040326
  },
  {
    "id": 823,
    "restaurentName": "Tally",
    "longitude": -51.1848488,
    "latitude": -29.6540396
  },
  {
    "id": 824,
    "restaurentName": "Del",
    "longitude": 83.777896,
    "latitude": 53.340959
  },
  {
    "id": 825,
    "restaurentName": "Alvira",
    "longitude": 119.9745295,
    "latitude": 40.621506
  },
  {
    "id": 826,
    "restaurentName": "Kaiser",
    "longitude": 70.5552362,
    "latitude": 37.1017088
  },
  {
    "id": 827,
    "restaurentName": "Hamnet",
    "longitude": 113.5371368,
    "latitude": -8.3654775
  },
  {
    "id": 828,
    "restaurentName": "Claudina",
    "longitude": 120.07514,
    "latitude": 29.306756
  },
  {
    "id": 829,
    "restaurentName": "Lane",
    "longitude": 5.6463088,
    "latitude": 52.0442252
  },
  {
    "id": 830,
    "restaurentName": "Dionisio",
    "longitude": 109.8301973,
    "latitude": 21.5233008
  },
  {
    "id": 831,
    "restaurentName": "Howie",
    "longitude": 114.2229,
    "latitude": -8.2889
  },
  {
    "id": 832,
    "restaurentName": "Stormi",
    "longitude": -44.3290923,
    "latitude": -2.5421083
  },
  {
    "id": 833,
    "restaurentName": "Brigida",
    "longitude": -79.2394761,
    "latitude": -7.9551186
  },
  {
    "id": 834,
    "restaurentName": "Ernestine",
    "longitude": 123.5810068,
    "latitude": 7.8518373
  },
  {
    "id": 835,
    "restaurentName": "Pier",
    "longitude": 11.8627984,
    "latitude": -4.76732
  },
  {
    "id": 836,
    "restaurentName": "Ryan",
    "longitude": 3.5276642,
    "latitude": 45.521519
  },
  {
    "id": 837,
    "restaurentName": "Leighton",
    "longitude": 31.5655424,
    "latitude": -17.3058881
  },
  {
    "id": 838,
    "restaurentName": "Lindi",
    "longitude": 123.8401962,
    "latitude": 9.7457208
  },
  {
    "id": 839,
    "restaurentName": "Amalea",
    "longitude": -24.354942,
    "latitude": 16.5636498
  },
  {
    "id": 840,
    "restaurentName": "Rriocard",
    "longitude": 17.2312846,
    "latitude": 54.2388118
  },
  {
    "id": 841,
    "restaurentName": "Lane",
    "longitude": -45.9991326,
    "latitude": -2.0133843
  },
  {
    "id": 842,
    "restaurentName": "Rina",
    "longitude": 124.9696526,
    "latitude": 10.3570803
  },
  {
    "id": 843,
    "restaurentName": "Randall",
    "longitude": 110.2325862,
    "latitude": -7.7280457
  },
  {
    "id": 844,
    "restaurentName": "Bastien",
    "longitude": 24.2987265,
    "latitude": 42.0298857
  },
  {
    "id": 845,
    "restaurentName": "Dela",
    "longitude": 116.144417,
    "latitude": 37.868872
  },
  {
    "id": 846,
    "restaurentName": "Claybourne",
    "longitude": 7.3507066,
    "latitude": 47.7489727
  },
  {
    "id": 847,
    "restaurentName": "Alberto",
    "longitude": 37.4622629,
    "latitude": 55.706844
  },
  {
    "id": 848,
    "restaurentName": "Jarvis",
    "longitude": 116.3928301,
    "latitude": -8.728779
  },
  {
    "id": 849,
    "restaurentName": "Mercie",
    "longitude": 25.0928704,
    "latitude": 35.0435187
  },
  {
    "id": 850,
    "restaurentName": "Giusto",
    "longitude": -7.7780329,
    "latitude": 41.2096885
  },
  {
    "id": 851,
    "restaurentName": "Maud",
    "longitude": 120.9946341,
    "latitude": 14.5823299
  },
  {
    "id": 852,
    "restaurentName": "Dalt",
    "longitude": 64.5681086,
    "latitude": 31.8299494
  },
  {
    "id": 853,
    "restaurentName": "Donielle",
    "longitude": 125.5633316,
    "latitude": 6.4758334
  },
  {
    "id": 854,
    "restaurentName": "Halsey",
    "longitude": 125.535149,
    "latitude": 9.7441
  },
  {
    "id": 855,
    "restaurentName": "Aarika",
    "longitude": 18.1033619,
    "latitude": 44.5454847
  },
  {
    "id": 856,
    "restaurentName": "Clo",
    "longitude": 126.0278163,
    "latitude": 44.9857216
  },
  {
    "id": 857,
    "restaurentName": "Rosalinde",
    "longitude": 25.7635891,
    "latitude": 56.5092219
  },
  {
    "id": 858,
    "restaurentName": "Barnabe",
    "longitude": 116.649432,
    "latitude": 39.903307
  },
  {
    "id": 859,
    "restaurentName": "Dotty",
    "longitude": 40.1445151,
    "latitude": 59.4051145
  },
  {
    "id": 860,
    "restaurentName": "Sashenka",
    "longitude": 19.0645121,
    "latitude": 47.5139827
  },
  {
    "id": 861,
    "restaurentName": "Madelin",
    "longitude": 18.0684457,
    "latitude": 59.4291534
  },
  {
    "id": 862,
    "restaurentName": "Celesta",
    "longitude": 16.4463703,
    "latitude": 52.6269375
  },
  {
    "id": 863,
    "restaurentName": "Ingram",
    "longitude": 115.169522,
    "latitude": -8.714498
  },
  {
    "id": 864,
    "restaurentName": "Svend",
    "longitude": 64.81142,
    "latitude": 39.50308
  },
  {
    "id": 865,
    "restaurentName": "Breanne",
    "longitude": -73.1169808,
    "latitude": -36.7247834
  },
  {
    "id": 866,
    "restaurentName": "Phyllis",
    "longitude": 97.360984,
    "latitude": 37.369435
  },
  {
    "id": 867,
    "restaurentName": "Sari",
    "longitude": 37.6232011,
    "latitude": 55.7711903
  },
  {
    "id": 868,
    "restaurentName": "Robinett",
    "longitude": -0.3907558,
    "latitude": 49.1931313
  },
  {
    "id": 869,
    "restaurentName": "Goldina",
    "longitude": 109.592921,
    "latitude": 27.950753
  },
  {
    "id": 870,
    "restaurentName": "Leila",
    "longitude": 122.6579982,
    "latitude": 11.0126649
  },
  {
    "id": 871,
    "restaurentName": "Lennard",
    "longitude": 106.1970149,
    "latitude": 37.9811976
  },
  {
    "id": 872,
    "restaurentName": "Cross",
    "longitude": -88.2461183,
    "latitude": 14.372734
  },
  {
    "id": 873,
    "restaurentName": "Lucita",
    "longitude": 114.374997,
    "latitude": -8.2077579
  },
  {
    "id": 874,
    "restaurentName": "Cassius",
    "longitude": -80.31823,
    "latitude": 27.27476
  },
  {
    "id": 875,
    "restaurentName": "Annissa",
    "longitude": -8.3584177,
    "latitude": 37.1022114
  },
  {
    "id": 876,
    "restaurentName": "Kyrstin",
    "longitude": 107.0251946,
    "latitude": -6.2056665
  },
  {
    "id": 877,
    "restaurentName": "Mose",
    "longitude": 11.4878714,
    "latitude": 6.0849674
  },
  {
    "id": 878,
    "restaurentName": "Rosalia",
    "longitude": 121.6978,
    "latitude": -8.3115
  },
  {
    "id": 879,
    "restaurentName": "Gertrud",
    "longitude": -9.3284939,
    "latitude": 39.3688081
  },
  {
    "id": 880,
    "restaurentName": "Letitia",
    "longitude": 112.1489829,
    "latitude": -8.3010912
  },
  {
    "id": 881,
    "restaurentName": "Xever",
    "longitude": 42.344717,
    "latitude": 52.0016128
  },
  {
    "id": 882,
    "restaurentName": "Betti",
    "longitude": 32.1804491,
    "latitude": 54.6567593
  },
  {
    "id": 883,
    "restaurentName": "Patty",
    "longitude": 130.5762726,
    "latitude": 32.9483104
  },
  {
    "id": 884,
    "restaurentName": "June",
    "longitude": 117.185294,
    "latitude": -8.4573045
  },
  {
    "id": 885,
    "restaurentName": "Larissa",
    "longitude": 121.438903,
    "latitude": 31.118803
  },
  {
    "id": 886,
    "restaurentName": "Lisbeth",
    "longitude": 158.709579,
    "latitude": 55.921585
  },
  {
    "id": 887,
    "restaurentName": "Beaufort",
    "longitude": 37.578484,
    "latitude": 49.0440881
  },
  {
    "id": 888,
    "restaurentName": "Tawnya",
    "longitude": 123.5937933,
    "latitude": -10.1602312
  },
  {
    "id": 889,
    "restaurentName": "Francesco",
    "longitude": 21.6149393,
    "latitude": 51.8971987
  },
  {
    "id": 890,
    "restaurentName": "Derward",
    "longitude": -73.9887809,
    "latitude": 40.7392836
  },
  {
    "id": 891,
    "restaurentName": "Nikolaos",
    "longitude": 22.8165095,
    "latitude": 4.7378613
  },
  {
    "id": 892,
    "restaurentName": "Heinrik",
    "longitude": 136.1682227,
    "latitude": 36.1473783
  },
  {
    "id": 893,
    "restaurentName": "Aubrie",
    "longitude": 73.3907315,
    "latitude": 33.9042954
  },
  {
    "id": 894,
    "restaurentName": "Joella",
    "longitude": -50.7031569,
    "latitude": -22.2454935
  },
  {
    "id": 895,
    "restaurentName": "Elane",
    "longitude": 120.301716,
    "latitude": 31.598726
  },
  {
    "id": 896,
    "restaurentName": "Christoffer",
    "longitude": 120.166448,
    "latitude": 30.271087
  },